     2.11           OBSERVATION DATA    G (GPS)             RINEX VERSION / TYPE
teqc  2019Feb12                         20230411 00:40:55UTCPGM / RUN BY / DATE
ZIMM                                                        MARKER NAME
14001M004                                                   MARKER NUMBER
TRIMBLE NETR9       SWISSTOPO                               OBSERVER / AGENCY
5429R49141          TRIMBLE NETR9       5.56                REC # / TYPE / VERS
99390               TRM29659.00     NONE                    ANT # / TYPE
  4331297.3480   567555.6390  4633133.7280                  APPROX POSITION XYZ
        0.0000        0.0000        0.0000                  ANTENNA: DELTA H/E/N
     1     1                                                WAVELENGTH FACT L1/2
    10    C1    L1    S1    C2    L2    S2    P2    C5    L5# / TYPES OF OBSERV
          S5                                                # / TYPES OF OBSERV
    30.0000                                                 INTERVAL
Linux 2.4.21-27.ELsmp|Opteron|gcc -static|Linux 64|=+       COMMENT
     2.11           OBSERVATION DATA    M (MIXED)           COMMENT
NetR9 5.56          Receiver Operator   20230410 000000 UTC COMMENT
L2C CARRIER PHASE MEASUREMENTS: PHASE SHIFTS REMOVED        COMMENT
L2C PHASE MATCHES L2 P PHASE                                COMMENT
GLONASS C/A & P PHASE MATCH: PHASE SHIFTS REMOVED           COMMENT
Forced Modulo Decimation to 30 seconds                      COMMENT
teqc edited: all GLONASS satellites excluded                COMMENT
teqc edited: all Galileo satellites excluded                COMMENT
  2023     4    10     0     0    0.0000000     GPS         TIME OF FIRST OBS
                                                            END OF HEADER
 23  4 10  0  0  0.0000000  0 10G16G03G30G04G20G05G06G11G09G07
  24182869.125 1 127081867.86511        28.000

  25253650.508 2 132709007.950 2        31.900    25253661.664 6 103409686.94047
        28.600    25253659.94147
  22994029.891 7 120834512.757 7        43.900    22994038.398 7  94156830.76149
        43.900    22994037.62149  22994035.699 5  90233629.163 5        36.200
  22586559.648 7 118693371.229 7        44.300    22586566.094 7  92488456.25348
        32.500    22586565.05548  22586566.402 5  88634768.779 5        35.300
  22580555.797 7 118661711.346 7        44.200                    92463659.99448
        31.400    22580560.50048
  25036316.977 3 131566736.85613        33.400    25036324.133 5 102519561.46455
        19.000    25036323.52045
  21489776.797 8 112929654.856 8        47.400    21489785.258 9  87997187.54449
        52.300    21489784.30949  21489782.879 6  84330593.017 6        39.500
  21572490.633 8 113364250.263 8        47.600    21572496.078 9  88335839.98749
        39.300    21572495.59049  21572496.785 6  84655161.062 6        38.200
  20577457.461 9 108135392.917 9        51.600    20577464.172 9  84261406.55249
        55.700    20577463.44149  20577461.617 7  80750611.223 7        42.300
  21189104.125 9 111349609.640 9        49.700    21189109.020 9  86765957.76349
        53.400    21189108.72749
 23  4 10  0  0 30.0000000  0 10G16G03G30G04G20G05G06G11G09G07
  24179970.797 1 127066639.51811        28.000

  25273428.852 3 132812943.708 3        33.700    25273439.094 5 103490675.65947
        27.400    25273436.94947
  22975346.484 7 120736331.567 7        44.700    22975355.445 7  94080325.98349
        44.300    22975354.43849  22975352.207 5  90160312.097 5        36.300
  22602335.453 7 118776273.885 7        44.200    22602342.086 8  92553055.70648
        32.800    22602341.55548  22602342.035 4  88696676.625 4        34.800
  22563322.734 8 118571149.019 8        45.300                    92393091.97748
        32.400    22563327.37548
  25016026.672 5 131460111.858 5        35.000    25016034.523 5 102436477.10345
        17.400    25016032.87145
  21503228.555 8 113000345.082 8        47.800    21503237.234 9  88052270.81749
        51.900    21503236.11749  21503234.688 6  84383381.133 6        38.800
  21569263.500 9 113347292.103 9        48.200    21569269.145 9  88322625.83349
        39.200    21569268.78149  21569270.176 6  84642497.497 6        39.200
  20584601.086 9 108172932.656 9        51.700    20584607.543 9  84290658.29449
        55.400    20584606.87149  20584605.059 7  80778644.151 7        42.200
  21181200.516 9 111308076.251 9        50.600    21181205.621 9  86733594.10149
        53.500    21181205.23449
 23  4 10  0  1  0.0000000  0 10G16G03G30G04G20G05G06G11G09G07
  24177186.766 1 127052005.76311        30.300

  25293224.117 5 132916959.401 5        35.200    25293232.770 5 103571726.81347
        29.900    25293232.24647
  22956707.930 7 120638386.610 7        44.600    22956717.207 8  94004005.28849
        43.800    22956716.23849  22956713.805 5  90087171.416 5        36.200
  22618139.422 7 118859323.706 7        43.900    22618146.133 8  92617769.81648
        32.000    22618145.45748  22618146.375 5  88758694.300 5        35.300
  22546126.344 8 118480780.645 8        45.200                    92322675.11548
        31.200    22546130.86748
  24995738.492 4 131353497.55414        34.300    24995746.504 5 102353401.17755
        19.600    24995745.71945
  21516769.328 9 113071501.309 9        48.000    21516777.672 9  88107717.19849
        51.900    21516776.47349  21516775.406 6  84436517.251 6        39.400
  21566152.367 9 113330942.534 9        48.300    21566158.043 9  88309885.90849
        39.600    21566157.43049  21566158.633 6  84630288.399 6        38.600
  20591807.789 9 108210804.002 9        52.600    20591814.117 9  84320168.42849
        55.200    20591813.66049  20591811.918 7  80806924.702 7        41.700
  21173385.234 9 111267006.598 9        49.900    21173390.328 8  86701591.78849
        53.500    21173389.96949
 23  4 10  0  1 30.0000000  0 10G16G03G30G04G20G05G06G11G09G07
  24174516.305 1 127037967.70011        30.700

  25313032.430 5 133021054.215 5        37.300    25313042.406 5 103652839.64348
        31.500    25313040.85248
  22938114.820 7 120540680.158 7        44.500    22938124.129 7  93927870.44749
        44.300    22938123.21149  22938120.926 5  90014208.873 5        36.100
  22633970.805 7 118942519.557 7        43.700    22633977.141 7  92682597.72248
        31.900    22633976.53548  22633978.629 5  88820821.051 5        35.400
  22528966.945 8 118390608.363 8        45.200                    92252411.03048
        32.700    22528971.03548
  24975453.898 5 131246895.783 5        37.000    24975460.016 5 102270334.96446
        20.900    24975459.97346
  21530397.984 9 113143121.251 9        48.000    21530406.422 9  88163524.92249
        51.900    21530405.39149  21530404.285 6  84489999.635 6        39.500
  21563157.109 9 113315202.393 9        48.900    21563162.762 9  88297620.85649
        39.300    21563162.39549  21563163.473 6  84618534.390 6        39.500
  20599077.352 9 108249006.026 9        52.100    20599083.824 9  84349936.22849
        55.300    20599083.25449  20599081.516 7  80835452.196 7        41.800
  21165658.516 9 111226401.733 9        50.100    21165663.453 9  86669951.65549
        53.500    21165663.00449
 23  4 10  0  2  0.0000000  0 10G16G03G30G04G20G05G06G11G09G07
  24171957.617 1 127024526.719 1        30.100

  25332855.891 5 133125227.10315        35.900    25332865.082 5 103734013.30857
        29.600    25332864.48847
  22919568.211 7 120443214.547 7        44.600    22919576.957 8  93851923.27549
        44.500    22919575.85949  22919573.848 5  89941426.181 5        36.500
  22649830.156 7 119025860.379 7        43.600    22649836.355 7  92747538.59048
        30.900    22649835.25448  22649837.469 5  88883055.976 5        35.000
  22511845.625 8 118300634.238 8        45.600                    92182301.35748
        31.700    22511849.21548
  24955171.078 6 131140308.183 6        38.100    24955177.008 5 102187279.70246
        22.000    24955176.23846
  21544114.672 8 113215202.710 8        47.900    21544123.316 9  88219692.27949
        51.900    21544122.16849  21544121.211 6  84543826.675 6        39.000
  21560277.813 9 113300072.476 9        48.100    21560283.645 9  88285831.30849
        39.200    21560283.10949  21560284.293 6  84607236.041 6        39.200
  20606409.656 9 108287537.750 9        52.700    20606416.250 9  84379960.94749
        55.600    20606415.64849  20606413.898 7  80864225.867 7        42.300
  21158020.156 9 111186262.679 9        49.800    21158025.219 9  86638674.49249
        53.700    21158024.87549
 23  4 10  0  2 30.0000000  0 10G16G03G30G04G20G05G06G11G09G07
  24169515.383 2 127011683.73012        31.600

  25352692.961 5 133229477.27315        36.100    25352704.270 6 103815247.13157
        29.900    25352703.19147
  22901067.375 7 120345992.025 7        44.300    22901075.910 7  93776165.51149
        44.300    22901075.00049  22901073.289 5  89868825.015 5        36.500
  22665716.914 7 119109344.961 7        43.400    22665723.270 7  92812591.49948
        31.400    22665722.16848  22665723.410 4  88945398.353 4        34.300
  22494762.344 8 118210860.661 8        45.500                    92112347.95048
        32.800    22494766.22748
  24934890.859 5 131033736.432 5        36.900    24934897.246 5 102104236.84045
        19.600    24934896.64545
  21557918.531 8 113287743.364 8        47.900    21557927.363 9  88276217.43249
        51.500    21557926.05149  21557925.043 6  84597996.632 6        39.000
  21557515.156 8 113285553.520 8        47.900    21557520.719 9  88274517.82749
        39.300    21557520.17649  21557521.539 6  84596393.959 6        39.200
  20613804.641 9 108326398.247 9        52.500    20613811.152 9  84410241.85249
        55.200    20613810.86349  20613808.918 7  80893245.073 7        42.300
  21150470.844 9 111146590.210 9        49.600    21150475.887 9  86607760.89349
        53.600    21150475.27349
 23  4 10  0  3  0.0000000  0 10G16G03G30G04G20G05G06G11G09G07
  24167184.391 1 126999439.918 1        30.300

  25372547.516 5 133333803.279 5        37.300    25372556.125 5 103896540.02648
        31.500    25372554.57448
  22882612.945 7 120249014.500 7        44.400    22882621.570 7  93700598.65349
        44.500    22882620.94149  22882619.090 5  89796406.781 5        36.900
  22681630.703 7 119192971.925 7        44.200    22681637.344 8  92877755.34448
        32.700    22681636.77048  22681637.105 4  89007847.097 4        34.700
  22477717.313 8 118121289.415 8        45.700                    92042552.20848
        32.100    22477720.86748
  24914614.133 5 130927181.157 5        35.200    24914620.102 5 102021206.86245
        19.000    24914619.71545
  21571809.695 8 113360740.596 8        47.500    21571818.270 8  88333098.36349
        51.700    21571816.92249  21571816.047 6  84652507.529 6        39.000
  21554868.477 9 113271645.894 9        48.100    21554874.145 9  88263680.70849
        39.200    21554873.46149  21554874.828 6  84586008.422 6        38.700
  20621261.898 9 108365586.202 9        51.900    20621268.313 9  84440777.92149
        55.600    20621267.95349  20621266.016 7  80922508.784 7        41.600
  21143010.344 9 111107385.064 9        49.400    21143015.445 8  86577211.44649
        53.800    21143014.63349
 23  4 10  0  3 30.0000000  0 10G16G03G30G04G20G05G06G11G09G07
  24164968.867 1 126987796.647 1        29.900

  25392413.563 5 133438204.707 5        35.400    25392423.332 6 103977891.74048
        30.300    25392423.12548
  22864206.047 7 120152284.888 7        44.500    22864214.766 8  93625224.96849
        45.100    22864213.78549  22864211.992 5  89724173.687 5        36.500
  22697571.320 7 119276740.791 7        43.500    22697577.926 8  92943029.74248
        31.500    22697577.40248  22697578.266 5  89070401.691 5        35.300
  22460711.383 8 118031923.095 8        45.400                    91972916.15048
        32.400    22460715.75448
  24894340.578 5 130820644.735 5        35.800    24894346.379 5 101938191.57846
        20.100    24894346.21546
  21585787.188 8 113434192.728 8        47.800    21585795.633 9  88390333.77249
        51.500    21585794.52349  21585793.270 6  84707358.104 6        39.300
  21552338.805 8 113258350.965 8        47.800    21552344.270 9  88253321.02049
        39.700    21552343.49249  21552344.980 6  84576080.349 6        39.200
  20628781.227 9 108405101.325 9        51.500    20628787.887 9  84471568.91849
        56.100    20628787.32049  20628785.625 7  80952016.828 7        42.200
  21135638.945 9 111068648.676 9        48.600    21135644.148 9  86547027.26449
        53.700    21135643.30949
 23  4 10  0  4  0.0000000  0 10G16G03G30G04G20G05G06G11G09G07
  24162866.523 1 126976755.534 1        30.300

  25412294.391 5 133542680.898 5        35.200    25412304.398 5 104059301.68647
        28.800    25412303.57447
  22845846.594 7 120055805.706 7        44.600    22845855.215 8  93550046.44549
        44.900    22845854.44949  22845852.219 5  89652127.629 5        36.700
  22713538.672 7 119360650.753 7        44.100    22713545.199 7  93008414.08948
        31.100    22713544.53948  22713546.551 5  89133061.713 5        35.300
  22443745.125 8 117942764.596 8        45.500                    91903442.02848
        33.100    22443749.33648
  24874071.086 5 130714129.394 5        36.300    24874077.309 5 101855192.69846
        21.100    24874076.93446
  21599850.602 8 113508097.694 8        47.900    21599859.527 8  88447922.03449
        51.100    21599858.18849  21599856.938 6  84762546.869 6        38.900
  21549925.422 9 113245669.695 9        48.200    21549931.066 9  88243439.50849
        39.700    21549930.44549  21549931.645 6  84566610.601 6        39.200
  20636362.867 9 108444942.911 9        51.900    20636369.391 9  84502614.29649
        55.000    20636369.05949  20636367.195 7  80981768.651 7        42.000
  21128357.078 9 111030382.477 9        49.300    21128362.262 9  86517209.46349
        53.600    21128361.53149
 23  4 10  0  4 30.0000000  0  9G16G30G04G20G05G06G11G09G07
  24160879.305 1 126966316.736 1        28.300

  22827534.820 7 119959578.506 7        44.300    22827543.602 8  93475064.26649
        44.700    22827542.75449  22827540.898 5  89580269.723 5        37.300
  22729533.125 7 119444699.935 7        43.900    22729538.938 7  93073906.95248
        31.800    22729538.27748  22729540.070 4  89195825.629 4        34.700
  22426818.797 8 117853814.870 8        45.100                    91834130.59648
        33.300    22426822.70748
  24853805.852 5 130607636.197 5        37.000    24853812.676 5 101772211.08046
        20.600    24853812.19546
  21613999.867 9 113582452.455 9        48.400    21614008.773 9  88505860.77949
        51.200    21614007.50449  21614006.273 6  84818071.475 6        38.900
  21547629.023 9 113233601.960 9        48.300    21547634.605 9  88234036.07049
        39.400    21547634.03549  21547635.570 6  84557598.952 6        39.200
  20644006.359 9 108485109.271 9        51.800    20644012.816 9  84533912.75949
        55.000    20644012.48049  20644010.566 7  81011763.001 7        41.700
  21121164.352 9 110992585.962 9        49.700    21121169.848 9  86487757.65049
        53.800    21121169.16449
 23  4 10  0  5  0.0000000  0  9G16G30G04G20G05G06G11G09G07
  24159008.555 1                        27.300

  22809271.461 7 119863604.916 7        44.500    22809280.273 8  93400279.69349
        44.700    22809279.23449  22809277.316 5  89508601.187 5        36.000
  22745553.461 7 119528886.679 7        44.000    22745559.574 7  93139506.98248
        30.400    22745558.66448  22745559.633 3  89258692.334 3        33.900
  22409931.797 8 117765076.020 8        45.300                    91764983.46548
        33.100    22409936.58648
  24833545.680 5 130501165.816 5        37.100    24833551.906 5 101689247.23946
        22.000    24833550.70346
  21628234.234 9 113657254.062 9        48.600    21628242.984 9  88564147.72549
        51.200    21628241.88349  21628240.391 6  84873929.804 6        39.600
  21545449.477 8 113222147.819 8        47.700    21545455.117 9  88225110.75549
        39.500    21545454.32049  21545455.777 6  84549045.556 6        39.300
  20651711.133 9 108525598.883 9        51.600    20651717.766 9  84565463.09349
        55.100    20651717.41449  20651715.613 7  81041998.751 7        41.700
  21114061.938 9 110955259.916 9        49.900    21114066.902 9  86458672.43249
        54.000    21114066.28949
 23  4 10  0  5 30.0000000  0  8G30G04G20G05G06G11G09G07
  22791057.133 8 119767886.828 8        45.400    22791065.867 8  93325694.20849
        45.000    22791064.88349  22791063.070 5  89437123.438 5        35.900
  22761599.469 7 119613209.558 7        43.500    22761605.883 7  93205213.09548
        30.700    22761605.23448  22761605.949 3  89321660.704 3        33.700
  22393085.961 8 117676550.001 8        45.500                    91696002.18948
        32.400    22393090.21948
  24813289.438 5 130394720.293 5        37.900    24813296.477 6 101606302.73646
        22.500    24813295.95346
  21642553.125 8 113732499.795 8        47.900    21642561.844 9  88622780.73949
        51.000    21642560.68049  21642559.348 6  84930119.786 6        39.100
  21543386.641 9 113211307.530 9        48.300    21543392.238 9  88216663.77249
        38.900    21543391.61749  21543392.891 6  84540950.509 6        39.200
  20659477.328 9 108566410.403 9        52.400    20659483.969 9  84597264.27849
        55.600    20659483.51649  20659481.348 7  81072474.881 7        42.200
  21107048.438 9 110918404.656 9        49.700    21107053.469 9  86429954.07149
        53.900    21107053.05949
 23  4 10  0  6  0.0000000  0  8G30G04G20G05G06G11G09G07
  22772891.773 7 119672427.149 7        44.700    22772900.594 7  93251310.09249
        45.200    22772899.43049  22772897.586 5  89365838.686 5        37.200
  22777671.086 7 119697668.220 7        43.100    22777677.969 7  93271024.98747
        29.700    22777677.41847  22777678.969 4  89384730.439 4        34.700
  22376280.766 8 117588239.248 8        46.000                    91627188.65648
        33.400    22376284.74248
  24793038.375 5 130288300.782 5        37.700    24793045.027 5 101523378.49746
        22.600    24793044.28146
  21656956.023 9 113808187.942 9        48.200    21656964.848 9  88681758.49749
        50.800    21656963.54349  21656962.422 6  84986640.109 6        38.800
  21541440.789 8 113201082.315 8        47.800    21541446.523 9  88208696.07549
        39.200    21541445.75049  21541447.043 6  84533314.792 6        39.400
  20667304.906 9 108607543.563 9        51.900    20667311.355 9  84629316.09249
        55.000    20667310.89549  20667309.027 7  81103191.188 7        41.700
  21100125.070 9 110882022.085 9        49.600    21100130.109 9  86401604.03249
        54.100    21100129.63349
 23  4 10  0  6 30.0000000  0  8G30G04G20G05G06G11G09G07
  22754776.148 7 119577228.544 7        44.900    22754784.727 8  93177129.40749
        45.500    22754783.85949  22754781.742 5  89294748.848 5        36.900
  22793768.875 7 119782261.902 7        43.800    22793775.324 7  93336942.10648
        30.200    22793774.29348  22793776.883 4  89447901.017 4        34.900
  22359517.570 8 117500146.778 8        45.900                    91558545.19148
        33.600    22359521.60248
  24772792.633 5 130181910.112 5        37.100    24772799.340 6 101440476.74746
        21.800    24772798.14146
  21671443.117 8 113884316.556 8        47.400    21671451.664 9  88741079.46649
        51.200    21671450.48049  21671449.148 6  85043489.392 6        38.800
  21539612.336 8 113191473.194 8        47.600    21539617.934 9  88201208.44449
        39.800    21539617.27749  21539618.500 6  84526139.146 6        38.900
  20675193.242 9 108648997.828 9        51.900    20675199.887 9  84661618.11349
        55.000    20675199.47749  20675197.316 7  81134147.313 7        41.700
  21093291.844 9 110846113.279 9        48.600    21093296.891 9  86373623.16149
        54.200    21093296.40649
 23  4 10  0  7  0.0000000  0  8G30G04G20G05G06G11G09G07
  22736710.359 8 119482291.915 8        46.100    22736718.695 8  93103152.86349
        45.800    22736718.01649  22736716.258 5  89223854.678 5        37.100
  22809891.938 7 119866988.310 7        44.000    22809898.219 7  93402962.66247
        29.400    22809897.59447  22809899.480 4  89511170.662 4        34.500
  22342795.906 8 117412273.328 8        46.700                    91490072.40648
        33.100    22342799.64148
  24752552.391 4 130075548.629 4        34.300    24752559.477 5 101357597.73846
        20.400    24752558.69146
  21686012.734 9 113960881.896 9        48.400    21686021.629 9  88800740.74349
        50.900    21686020.47349  21686018.949 6  85100664.755 6        38.800
  21537900.992 8 113182479.336 8        47.300    21537906.348 9  88194200.23749
        39.500    21537905.92649  21537907.254 6  84519422.960 6        38.400
  20683142.266 9 108690770.945 9        52.000    20683149.176 9  84694168.58549
        55.200    20683148.52749  20683146.836 7  81165341.494 7        42.200
  21086548.711 9 110810677.037 9        49.200    21086553.504 9  86346010.52249
        54.100    21086553.09449
 23  4 10  0  7 30.0000000  0  8G30G04G20G05G06G11G09G07
  22718694.258 7 119387618.954 7        44.700    22718703.000 8  93029381.77649
        45.600    22718701.93449  22718700.438 5  89153157.389 5        36.800
  22826039.773 7 119951845.778 7        43.600    22826046.227 7  93469085.33947
        29.900    22826045.52347  22826046.867 4  89574538.222 4        34.400
  22326116.063 8 117324620.558 8        46.400                    91421771.58148
        32.900    22326120.50048
  24732319.063 5 129969218.492 5        36.100    24732325.328 5 101274743.18846
        21.700    24732324.39146
  21700665.102 8 114037880.984 8        47.900    21700674.016 8  88860740.00049
        50.500    21700672.71949  21700671.762 6  85158164.037 6        38.400
  21536306.383 8 113174100.649 8        47.300    21536312.125 9  88187671.39349
        40.000    21536311.52349  21536312.590 6  84513166.155 6        39.200
  20691151.945 9 108732861.351 9        52.100    20691158.617 9  84726966.29949
        55.200    20691158.10549  20691156.387 7  81196772.623 7        42.400
  21079895.250 9 110775714.041 9        48.600    21079900.285 9  86318766.64749
        54.200    21079899.93849
 23  4 10  0  8  0.0000000  0  8G30G04G20G05G06G11G09G07
  22700729.281 7 119293213.068 7        44.600    22700738.121 8  92955818.79649
        45.700    22700737.24249  22700735.336 5  89082659.543 5        37.200
  22842212.836 7 120036834.536 7        42.400    22842218.727 7  93535310.32447
        29.300    22842218.65647  22842219.047 3  89638003.852 3        33.200
  22309478.758 8 117237191.972 8        46.300                    91353645.44548
        33.100    22309483.32048
  24712091.391 5 129862920.964 5        37.100    24712097.637 6 101191914.02446
        21.300    24712097.16446
  21715400.117 8 114115312.677 8        47.900    21715408.629 9  88921076.36549
        50.400    21715407.44549  21715406.566 6  85215986.408 6        39.000
  21534829.383 8 113166338.932 8        47.200    21534834.938 9  88181623.30449
        39.500    21534834.17249  21534836.078 6  84507370.048 6        39.800
  20699221.891 9 108775269.401 9        52.900    20699228.613 9  84760011.52949
        55.800    20699228.16049  20699226.188 7  81228440.973 7        41.600
  21073332.781 9 110741226.793 9        48.900    21073337.621 9  86291893.48449
        54.100    21073337.04349
 23  4 10  0  8 30.0000000  0  8G30G04G20G05G06G11G09G07
  22682815.969 7 119199076.317 7        44.900    22682824.629 8  92882465.53749
        46.200    22682823.65249  22682821.926 5  89012362.692 5        37.300
  22858410.031 7 120121953.301 7        42.500    22858416.230 7  93601636.60747
        29.400    22858415.74247  22858417.441 4  89701566.526 4        34.200
  22292884.891 8 117149989.892 8        46.300                    91285695.80448
        33.400    22292889.26248
  24691870.047 6 129756657.464 6        39.300    24691876.523 5 101109111.34346
        22.600    24691875.59046
  21730216.898 9 114193174.286 9        48.000    21730225.504 9  88981747.72949
        50.700    21730224.22749  21730223.344 6  85274129.772 6        38.700
  21533469.859 9 113159194.394 9        48.200    21533475.492 9  88176056.12849
        39.200    21533474.64549  21533476.516 6  84502034.818 6        39.100
  20707352.047 9 108817993.867 9        51.800    20707358.652 9  84793303.32149
        55.600    20707358.41049  20707356.531 7  81260345.616 7        41.700
  21066860.414 9 110707214.992 9        49.300    21066865.309 9  86265390.79449
        54.300    21066864.52749
 23  4 10  0  9  0.0000000  0  8G30G04G20G05G06G11G09G07
  22664954.094 8 119105210.461 8        45.600    22664962.258 8  92809323.35249
        46.300    22664961.32449  22664959.484 5  88942268.121 5        37.700
  22874632.336 7 120207200.666 7        42.500    22874638.484 7  93668063.10247
        29.000    22874637.82047  22874639.863 4  89765225.207 4        34.800
  22276333.953 8 117063015.899 8        46.000                    91217923.89148
        33.100    22276338.38748
  24671655.211 6 129650429.756 6        38.700    24671661.598 5 101026336.53446
        22.200    24671661.04346
  21745114.609 9 114271462.949 9        48.200    21745123.434 9  89042751.86149
        50.800    21745122.41449  21745121.059 6  85332592.055 6        38.300
  21532227.617 8 113152667.048 8        47.600    21532233.297 9  88170969.88249
        38.900    21532232.53549  21532233.969 6  84497160.517 6        38.700
  20715542.203 9 108861033.431 9        52.300    20715548.922 9  84826840.64049
        56.600    20715548.43849  20715546.543 7  81292485.546 7        41.700
  21060478.750 9 110673679.380 9        49.100    21060483.574 9  86239259.15949
        54.400    21060482.96949
 23  4 10  0  9 30.0000000  0  8G30G04G20G05G06G11G09G07
  22647143.508 8 119011617.517 8        45.200    22647152.223 8  92736393.82349
        46.100    22647151.05149  22647149.441 5  88872377.316 5        37.900
  22890878.406 7 120292575.365 7        42.600    22890885.125 7  93734588.81347
        29.000    22890884.67647  22890885.922 4  89828979.026 4        34.400
  22259826.922 8 116976272.333 8        45.900                    91150331.52948
        33.000    22259831.73448
  24651447.188 5 129544239.921 5        37.100    24651454.672 6 100943591.24446
        22.000    24651454.07846
  21760093.234 9 114350176.050 9        48.100    21760101.855 9  89104086.71549
        50.500    21760100.86749  21760099.438 6  85391371.286 6        38.800
  21531103.094 8 113146756.994 8        47.800    21531108.527 9  88166364.65049
        39.500    21531108.07449  21531109.418 6  84492747.164 6        39.600
  20723792.156 9 108904386.929 9        52.100    20723798.844 9  84860622.58349
        55.100    20723798.37949  20723796.391 7  81324859.910 7        41.700
  21054188.047 9 110640620.891 9        48.600    21054192.852 9  86213499.32249
        54.400    21054192.33649
 23  4 10  0 10  0.0000000  0  8G30G04G20G05G06G11G09G07
  22629385.719 7 118918299.942 7        44.700    22629394.496 8  92663678.88349
        46.400    22629393.63349  22629391.645 5  88802692.177 5        37.500
  22907149.141 7 120378076.657 7        43.400    22907155.367 7  93801213.16447
        29.200    22907155.34447  22907155.914 4  89892827.357 4        34.400
  22243364.797 8 116889761.470 8        46.000                    91082920.49649
        34.000    22243368.60549
  24631248.273 6 129438089.525 6        38.600    24631254.773 5 100860876.70246
        22.500    24631254.16846
  21775152.016 9 114429311.360 9        48.000    21775160.988 8  89165750.55849
        50.200    21775159.90649  21775158.449 6  85450465.810 6        38.600
  21530096.211 8 113141465.098 8        47.200    21530101.512 9  88162241.08849
        39.000    21530100.90649  21530102.383 6  84488795.460 6        39.000
  20732101.633 9 108948053.715 9        52.900    20732108.352 9  84894648.64649
        56.000    20732107.73449  20732106.020 7  81357468.237 7        42.000
  21047988.094 9 110608039.992 9        48.800    21047992.840 9  86188111.62849
        54.400    21047992.34449
 23  4 10  0 10 30.0000000  0  8G30G04G20G05G06G11G09G07
  22611680.563 8 118825259.338 8        45.900    22611689.496 8  92591179.75849
        46.900    22611688.68449  22611686.285 5  88733213.866 5        37.500
  22923443.227 7 120463702.843 7        42.100    22923449.523 7  93867934.84147
        28.300    22923449.48047  22923449.871 3  89956768.978 3        33.800
  22226947.211 8 116803484.986 8        47.000                    91015692.08348
        33.900    22226951.12148
  24611056.828 6 129331980.202 6        39.500    24611063.266 6 100778194.20246
        24.000    24611062.67646
  21790290.875 9 114508865.780 9        48.300    21790299.375 9  89227740.98749
        50.100    21790298.56349  21790297.164 6  85509873.310 6        38.600
  21529206.797 8 113136790.978 8        47.800    21529212.086 9  88158598.91749
        38.900    21529211.29349  21529212.840 6  84485305.003 6        39.000
  20740470.414 9 108992032.152 9        52.300    20740477.188 9  84928917.55049
        56.100    20740476.63349  20740474.398 7  81390309.244 7        41.600
  21041879.008 9 110575936.751 9        48.900    21041883.742 9  86163096.12649
        54.500    21041883.31649
 23  4 10  0 11  0.0000000  0  8G30G04G20G05G06G11G09G07
  22594028.836 8 118732497.674 8        45.600    22594037.316 8  92518897.98949
        47.000    22594036.55949  22594034.586 6  88663943.851 6        38.300
  22939760.797 7 120549452.750 7        42.000    22939766.941 7  93934752.90847
        28.100    22939766.15647  22939768.266 4  90020802.953 4        34.600
  22210574.359 8 116717445.008 8        47.000                    90948647.96549
        34.400    22210578.02749
  24590872.414 5 129225913.412 5        37.200    24590878.730 6 100695544.79646
        23.000    24590877.89846
  21805509.031 9 114588836.590 9        48.700    21805517.684 9  89290055.87649
        50.100    21805516.58649  21805515.262 6  85569591.740 6        38.600
  21528434.859 8 113132734.746 8        47.500    21528440.363 9  88155438.20749
        39.500    21528439.60949  21528440.953 6  84482276.006 6        39.400
  20748898.500 9 109036321.112 9        52.300    20748904.918 9  84963428.42849
        55.300    20748904.22749  20748902.664 7  81423382.171 7        41.600
  21035860.578 9 110544311.390 9        48.900    21035865.590 9  86138452.99149
        54.400    21035865.28149
 23  4 10  0 11 30.0000000  0  8G30G04G20G05G06G11G09G07
  22576430.484 8 118640017.801 8        45.500    22576438.941 8  92446835.79149
        47.000    22576437.94149  22576436.023 5  88594884.261 5        37.400
  22956102.031 7 120635326.081 7        42.100    22956108.172 7  94001667.16947
        28.100    22956107.43847  22956109.543 4  90084929.117 4        34.100
  22194246.805 8 116631644.453 8        46.200                    90881790.43249
        34.100    22194251.18449
  24570697.055 6 129119890.706 6        38.700    24570703.160 5 100612929.77946
        22.600    24570702.76246
  21820805.586 8 114669221.984 8        47.900    21820814.570 9  89352693.82649
        50.000    21820813.41449  21820811.984 6  85629619.769 6        38.600
  21527780.766 8 113129297.378 8        47.500    21527786.078 9  88152759.73049
        39.300    21527785.60549  21527786.781 6  84479709.134 6        39.000
  20757385.328 9 109080920.343 9        52.400    20757392.012 9  84998181.07649
        55.000    20757391.38749  20757389.605 7  81456686.796 7        41.500
  21029933.859 9 110513165.658 9        48.500    21029938.836 9  86114183.60649
        54.500    21029938.35949
 23  4 10  0 12  0.0000000  0  8G30G04G20G05G06G11G09G07
  22558886.063 8 118547821.156 8        45.500    22558894.422 8  92374994.28649
        47.500    22558893.62549  22558891.297 5  88526036.143 5        37.800
  22972466.531 7 120721321.043 7        42.400    22972472.664 7  94068676.20747
        28.900    22972472.36747  22972473.527 3  90149146.085 3        33.800
  22177965.016 8 116546084.722 8        46.500                    90815120.54449
        34.200    22177969.54349
  24550529.938 6 129013913.464 6        39.200    24550536.387 5 100530350.11946
        24.700    24550535.48046
  21836180.734 8 114750018.714 8        47.600    21836189.605 8  89415652.29349
        50.000    21836188.75849  21836187.090 6  85689954.964 6        38.500
  21527244.203 8 113126478.430 8        47.200    21527249.770 9  88150563.14649
        39.100    21527249.23049  21527250.406 6  84477604.055 6        39.200
  20765931.023 9 109125828.136 9        52.100    20765937.609 9  85033174.15949
        55.800    20765937.09449  20765935.379 7  81490221.837 7        41.700
  21024098.148 9 110482499.099 9        48.800    21024103.141 9  86090287.60549
        54.500    21024102.55549
 23  4 10  0 12 30.0000000  0  8G30G04G20G05G06G11G09G07
  22541395.719 8 118455909.904 8        45.600    22541404.535 8  92303375.17149
        47.500    22541403.49249  22541401.375 5  88457401.170 5        37.500
  22988853.602 7 120807436.634 7        42.500    22988860.043 7  94135779.22847
        28.800    22988859.83647  22988860.270 3  90213453.148 3        32.700
  22161730.281 8 116460768.422 8        47.200                    90748640.34149
        34.200    22161734.19549
  24530372.734 6 128907983.804 6        40.500    24530378.770 5 100447807.57347
        25.600    24530378.26647
  21851633.648 8 114831224.230 8        47.900    21851642.555 9  89478929.28349
        49.600    21851641.59449  21851640.273 6  85750595.385 6        38.100
  21526825.453 8 113124278.120 8        47.800    21526831.070 9  88148848.60949
        39.200    21526830.54749  21526832.012 6  84475960.981 6        39.400
  20774535.164 9 109171043.535 9        52.100    20774541.820 9  85068406.93449
        55.000    20774541.16449  20774539.605 7  81523986.565 7        41.500
  21018354.070 9 110452312.801 9        49.000    21018358.977 9  86066765.83149
        54.700    21018358.50849
 23  4 10  0 13  0.0000000  0  9G16G30G04G20G05G06G11G09G07
  24144796.328 2                        31.600

  22523960.172 8 118364285.902 8        45.800    22523968.855 8  92231979.89349
        47.300    22523968.03549  22523966.070 6  88388980.731 6        38.500
  23005263.727 7 120893671.607 7        41.700    23005270.098 7  94202975.27347
        29.100    23005269.91847  23005270.605 3  90277849.390 3        33.800
  22145541.750 8 116375697.646 8        47.000                    90682351.44749
        34.500    22145545.77349
  24510223.945 6 128802103.484 6        38.700    24510230.754 6 100365303.45346
        24.100    24510230.08646
  21867163.742 8 114912835.714 8        47.500    21867172.785 9  89542522.61649
        49.500    21867171.85549  21867170.566 6  85811539.029 6        38.800
  21526524.375 8 113122696.418 8        47.100    21526530.094 9  88147616.10949
        39.200    21526529.43449  21526531.082 6  84474779.824 6        39.200
  20783197.867 9 109216565.363 9        51.500    20783204.383 9  85103878.49049
        55.200    20783203.88749  20783202.129 7  81557980.126 7        41.400
  21012701.250 9 110422606.991 9        48.900    21012706.098 9  86043618.46249
        54.600    21012705.63349
 23  4 10  0 13 30.0000000  0  9G16G30G04G20G05G06G11G09G07
  24144896.883 3                        32.000

  22506580.156 8 118272951.514 8        46.000    22506588.531 8  92160810.28049
        47.800    22506587.43449  22506585.355 6  88320776.511 6        38.300
  23021696.180 7 120980025.091 7        42.300    23021702.488 7  94270263.64247
        28.500    23021701.93047  23021703.605 4  90342334.017 4        34.000
  22129400.500 8 116290874.826 8        46.400                    90616255.76649
        34.400    22129404.30549
  24490085.063 6 128696274.049 6        38.700    24490091.820 6 100282839.05646
        22.000    24490090.60546
  21882770.852 8 114994850.765 8        47.100    21882779.723 8  89606430.42349
        49.400    21882778.55549  21882777.762 6  85872783.961 6        38.300
  21526341.250 9 113121733.649 9        48.100    21526346.871 9  88146865.90749
        39.500    21526346.46949  21526347.813 6  84474060.871 6        38.900
  20791918.578 9 109262392.765 9        51.800    20791925.039 9  85139588.15049
        55.300    20791924.51249  20791922.777 7  81592201.898 7        41.100
  21007139.805 9 110393381.406 9        49.800    21007144.477 9  86020845.29849
        54.600    21007144.09849
 23  4 10  0 14  0.0000000  0  9G16G30G04G20G05G06G11G09G07
  24145116.172 3 126883486.51113        33.000

  22489255.148 8 118181908.790 8        46.100    22489263.551 8  92089867.92949
        48.100    22489262.64549  22489260.355 5  88252790.129 5        37.300
  23038151.031 7 121066496.100 7        42.800    23038157.164 7  94337643.62347
        28.700    23038156.86347  23038158.418 3  90406906.492 3        33.700
  22113306.789 8 116206301.935 8        47.300                    90550354.83349
        34.700    22113310.66049
  24469957.227 5 128590497.509 5        37.700    24469962.504 5 100200415.83746
        22.000    24469962.34846
  21898454.250 8 115077266.802 8        47.700    21898462.902 8  89670650.68349
        49.300    21898461.59449  21898460.758 6  85934328.399 6        38.100
  21526276.148 8 113121389.963 8        47.800    21526281.406 9  88146598.09249
        39.600    21526280.95749  21526282.375 6  84473804.218 6        39.200
  20800697.172 9 109308524.763 9        52.100    20800703.699 9  85175535.15649
        55.700    20800702.90649  20800701.180 7  81626651.112 7        41.300
  21001670.008 9 110364637.867 9        49.400    21001674.754 9  85998447.75349
        54.600    21001674.08249
 23  4 10  0 14 30.0000000  0  9G16G30G04G20G05G06G11G09G07
  24145451.227 3 126885252.53313        33.200                    98871610.46055
        16.900    24145456.38345
  22471986.109 8 118091160.169 8        46.300    22471994.734 8  92019154.76249
        48.100    22471993.89849  22471991.602 5  88185023.328 5        37.600
  23054628.031 7 121153083.883 7        41.800    23054634.887 7  94405114.58947
        28.600    23054634.46147  23054635.043 3  90471566.166 3        33.100
  22097261.039 8 116121981.665 8        47.000                    90484650.75149
        34.700    22097265.07049
  24449838.625 6 128484775.047 6        38.100    24449844.539 5 100118034.75346
        24.100    24449843.93446
  21914213.273 8 115160081.446 8        46.900    21914221.934 8  89735181.54749
        49.300    21914220.84849  21914219.398 6  85996170.467 6        38.200
  21526328.297 8 113121665.723 8        47.100    21526333.977 9  88146812.96049
        39.300    21526333.38349  21526334.625 6  84474010.100 6        39.000
  20809533.555 9 109354960.654 9        52.300    20809540.090 9  85211718.97649
        55.500    20809539.86749  20809537.676 7  81661327.282 7        41.300
  20996292.023 9 110336376.530 9        48.800    20996296.965 9  85976425.96949
        54.700    20996296.16849
 23  4 10  0 15  0.0000000  0  9G16G30G04G20G05G06G11G09G07
  24145905.000 3 126887634.776 3        33.800                    98873466.87354
        14.800    24145909.28144
  22454773.406 8 118000707.342 8        46.000    22454782.230 8  91948672.08049
        48.200    22454781.18449  22454779.098 6  88117477.449 6        38.200
  23071126.852 7 121239787.098 7        41.500    23071133.875 7  94472675.48747
        28.900    23071133.57447  23071133.344 2  90536311.997 2        31.900
  22081263.766 8 116037916.049 8        46.500                    90419145.09849
        34.400    22081268.20349
  24429730.578 6 128379108.989 6        38.800    24429736.621 6 100035697.59046
        22.900    24429736.03546
  21930047.828 8 115243291.756 8        47.400    21930056.496 8  89800020.73049
        49.000    21930055.36349  21930054.156 5  86058308.027 5        37.900
  21526498.922 8 113122560.648 8        47.300    21526504.383 9  88147510.29449
        39.500    21526503.84849  21526504.883 6  84474678.402 6        39.200
  20818427.516 9 109401699.139 9        51.800    20818434.133 9  85248138.56649
        55.200    20818434.05949  20818431.887 7  81696229.391 7        42.000
  20991005.797 9 110308598.075 9        48.800    20991010.762 9  85954780.43749
        54.600    20991010.10949
 23  4 10  0 15 30.0000000  0  9G16G30G04G20G05G06G11G09G07
  24146475.383 4 126890633.00714        34.700                    98875803.18555
        16.300    24146480.00045
  22437617.141 8 117910551.699 8        46.000    22437626.023 8  91878420.98149
        48.200    22437625.03949  22437623.281 6  88050153.499 6        38.200
  23087648.398 7 121326603.962 7        42.500    23087654.516 7  94540324.94747
        28.800    23087653.87547  23087655.000 3  90601142.793 3        32.700
  22065315.414 8 115954106.474 8        46.400                    90353838.95449
        35.400    22065319.75449
  24409633.492 6 128273500.308 6        38.600    24409639.633 5  99953405.17246
        22.300    24409639.13746
  21945956.859 8 115326894.409 8        47.000    21945965.473 8  89865165.62649
        48.800    21945964.55149  21945963.605 6  86120738.528 6        38.600
  21526786.859 8 113124074.115 8        47.400    21526792.375 9  88148689.61849
        39.700    21526792.07049  21526793.176 6  84475808.577 6        39.300
  20827379.016 9 109448738.480 9        52.200    20827385.332 9  85284792.59949
        55.500    20827385.10549  20827383.008 6  81731356.152 6        40.900
  20985811.523 9 110281301.416 9        48.600    20985816.324 9  85933510.32849
        54.600    20985815.66449
 23  4 10  0 16  0.0000000  0  9G16G30G04G20G05G06G11G09G07
  24147163.664 4 126894247.920 4        34.300                    98878620.00545
        16.300    24147167.64545
  22420518.250 8 117820695.563 8        46.300    22420526.887 8  91808403.24949
        48.400    22420525.73049  22420523.980 6  87983053.175 6        38.300
  23104190.781 7 121413533.766 7        42.000    23104196.410 7  94608062.43647
        27.800    23104195.78147  23104198.082 4  90666057.857 4        34.100
  22049416.227 8 115870555.641 8        47.000                    90288734.43049
        34.900    22049420.43849
  24389548.664 6 128167951.005 6        38.600    24389553.977 5  99871159.00546
        23.000    24389553.89546
  21961940.023 8 115410886.933 8        47.400    21961948.828 8  89930614.31349
        48.800    21961947.68449  21961946.688 5  86183460.188 5        37.700
  21527192.539 8 113126206.300 8        47.900    21527198.051 9  88150351.05449
        39.500    21527197.67249  21527198.750 6  84477400.782 6        39.400
  20836387.117 9 109496077.891 9        52.000    20836393.777 9  85321680.44149
        55.000    20836393.57049  20836391.535 7  81766707.013 7        41.700
  20980708.938 9 110254488.051 9        49.500    20980713.930 9  85912616.81349
        54.700    20980713.27349
 23  4 10  0 16 30.0000000  0  9G16G30G04G20G05G06G11G09G07
  24147969.094 3 126898480.90413        33.500                    98881918.48955
        16.900    24147973.44945
  22403476.703 8 117731141.945 8        46.000    22403485.410 8  91738621.24149
        48.300    22403484.19549  22403482.223 6  87916178.793 6        38.300
  23120753.867 7 121500576.399 7        41.800    23120760.520 7  94675887.84247
        28.600    23120759.73847  23120761.082 3  90731057.153 3        33.200
  22033567.047 8 115787266.605 8        46.500                    90223833.91249
        35.100    22033570.90649
  24369474.570 5 128062464.003 5        37.900    24369481.109 6  99788961.35846
        22.800    24369480.77746
  21977997.133 8 115495267.650 8        47.200    21978005.977 8  89996365.49349
        48.800    21978004.84049  21978003.785 6  86246471.725 6        38.100
  21527716.094 8 113128958.205 8        47.200    21527721.688 9  88152495.38549
        38.800    21527720.81349  21527722.344 6  84479455.762 6        39.200
  20845452.711 9 109543717.374 9        51.900    20845459.480 9  85358802.11249
        55.100    20845458.80549  20845457.223 7  81802281.938 7        41.400
  20975698.617 9 110228158.885 9        48.800    20975703.512 9  85892100.60249
        54.900    20975702.96949
 23  4 10  0 17  0.0000000  0  9G16G30G04G20G05G06G11G09G07
  24148893.031 4 126903331.10614        34.000                    98885697.90855
        15.600    24148896.19545
  22386493.117 8 117641891.964 8        46.100    22386501.668 8  91669075.84349
        48.800    22386500.76649  22386498.484 6  87849531.106 6        38.300
  23137338.453 7 121587729.996 7        41.600    23137345.723 7  94743799.68247
        28.900    23137345.04747  23137345.109 3  90796139.375 3        32.600
  22017767.734 8 115704240.707 8        46.600                    90159138.42549
        35.200    22017771.93049
  24349413.125 6 127957039.908 6        39.000    24349419.453 6  99706812.82746
        24.700    24349419.37546
  21994127.539 8 115580032.969 8        47.000    21994136.133 8  90062416.36549
        48.500    21994135.12149  21994133.863 5  86309770.474 5        37.200
  21528357.508 8 113132328.861 8        47.200    21528363.098 9  88155121.85149
        39.200    21528362.26249  21528363.504 6  84481972.794 6        38.800
  20854574.953 9 109591655.008 9        52.000    20854581.539 9  85396156.11349
        55.200    20854581.00449  20854579.070 7  81838079.505 7        41.200
  20970780.586 9 110202313.344 9        49.300    20970785.273 9  85871961.23349
        54.900    20970784.73049
 23  4 10  0 17 30.0000000  0  9G16G30G04G20G05G06G11G09G07
  24149932.719 4 126908798.71014        34.300                    98889958.43955
        16.900    24149936.26645
  22369567.641 8 117552947.545 8        46.500    22369576.004 9  91599768.54549
        49.100    22369575.42249  22369572.941 6  87783111.608 6        38.900
  23153944.320 7 121674993.415 7        41.300    23153951.004 7  94811797.10147
        28.500    23153950.58247  23153950.656 3  90861303.586 3        32.300
  22002018.781 8 115621480.205 8        46.300                    90094649.73649
        35.400    22002022.87949
  24329364.047 6 127851679.944 6        40.900    24329369.461 5  99624714.18646
        22.500    24329368.77046
  22010330.602 8 115665180.064 8        45.900    22010339.246 8  90128764.73049
        48.100    22010337.98049  22010336.879 5  86373354.336 5        37.600
  21529116.695 8 113136318.044 8        47.800    21529122.301 9  88158230.30749
        39.000    21529121.63749  21529122.746 6  84484951.736 6        38.900
  20863753.703 9 109639889.641 9        51.300    20863760.199 9  85433741.53749
        55.600    20863759.88349  20863757.945 7  81874098.893 7        41.100
  20965954.570 9 110176952.164 9        49.800    20965959.293 9  85852199.28949
        54.800    20965958.61349
 23  4 10  0 18  0.0000000  0  9G16G30G04G20G05G06G11G09G07
  24151091.242 4 126914884.619 4        34.100                    98894700.70244
        14.800    24151094.34844
  22352700.500 8 117464311.170 8        46.200    22352708.973 8  91530701.27949
        49.000    22352708.05549  22352706.016 6  87716922.147 6        38.500
  23170570.742 7 121762366.089 7        42.000    23170577.234 7  94879879.66847
        27.700    23170576.50047  23170578.113 3  90926549.305 3        33.300
  21986320.805 8 115538987.724 8        46.400                    90030369.89449
        35.300    21986325.21149
  24309327.453 6 127746386.894 6        40.000    24309333.680 6  99542667.69546
        24.700    24309333.45746
  22026605.781 8 115750706.724 8        46.600    22026614.512 8  90195408.84149
        48.000    22026613.25049  22026612.234 5  86437221.627 5        37.600
  21529993.531 8 113140926.131 8        47.300    21529999.094 9  88161821.01049
        39.500    21529998.66049  21529999.699 6  84488392.836 6        38.900
  20872988.805 9 109688420.770 9        51.500    20872995.625 9  85471557.99949
        55.200    20872995.30549  20872993.043 7  81910339.676 7        41.400
  20961220.758 9 110152075.855 9        49.400    20961225.652 9  85832815.16749
        55.000    20961224.85249
 23  4 10  0 18 30.0000000  0  9G16G30G04G20G05G06G11G09G07
  24152365.141 3                        33.700
        14.800    24152369.91044
  22335892.711 8 117375984.947 8        46.100    22335900.945 8  91461875.69049
        49.000    22335900.17649  22335898.105 6  87650964.313 6        38.900
  23187218.297 7 121849847.096 7        42.200    23187224.309 7  94948046.67747
        28.400    23187223.50847  23187225.574 3  90991875.964 3        33.300
  21970674.594 8 115456766.022 8        46.600                    89966301.06249
        35.200    21970679.03949
  24289303.758 6 127641162.673 6        39.600    24289310.391 6  99460674.84846
        24.900    24289309.17646
  22042952.445 8 115836610.208 8        46.700    22042961.484 8  90262346.59949
        48.100    22042960.27349  22042959.328 5  86501370.274 5        37.400
  21530988.063 8 113146153.041 8        47.100    21530993.758 9  88165893.91249
        39.200    21530993.19949  21530994.367 6  84492296.047 6        39.000
  20882280.438 9 109737247.398 9        51.300    20882286.902 9  85509604.71549
        55.700    20882286.37149  20882284.488 7  81946801.099 7        41.400
  20956579.070 9 110127684.623 9        49.300    20956583.945 9  85813809.02249
        55.000    20956583.43449
 23  4 10  0 19  0.0000000  0  9G16G30G04G20G05G06G11G09G07
  24153758.828 3                        33.400
        14.800    24153763.35944
  22319143.953 8 117287970.197 8        46.800    22319152.273 8  91393292.80149
        49.300    22319151.41849  22319149.340 6  87585239.072 6        38.600
  23203885.648 7 121937434.779 7        41.500    23203892.160 7  95016296.77147
        29.700    23203891.78947  23203892.980 3  91057282.347 3        33.000
  21955080.211 8 115374816.229 8        46.800                    89902444.09349
        36.000    21955084.28949
  24269293.680 6 127536008.301 6        40.600    24269299.629 6  99378736.43446
        24.700    24269299.11346
  22059370.625 8 115922887.224 8        45.700    22059379.449 8  90329575.41549
        48.200    22059378.49249  22059377.172 5  86565797.880 5        37.700
  21532100.242 9 113151997.995 9        48.000    21532106.082 9  88170448.41749
        39.300    21532105.36349  21532106.727 6  84496660.773 6        38.500
  20891627.469 9 109786367.933 9        49.700    20891634.305 9  85547880.45049
        55.000    20891633.89149  20891631.809 7  81983482.002 7        41.400
  20952029.977 9 110103778.332 9        50.000    20952034.871 9  85795180.76749
        55.000    20952034.21149
 23  4 10  0 19 30.0000000  0  9G16G30G04G20G05G06G11G09G07
  24155270.203 3                        32.600
        15.600    24155274.75845
  22302455.258 8 117200269.285 8        47.600    22302463.281 8  91324954.46849
        49.300    22302462.61749  22302460.426 6  87519748.164 6        39.000
  23220573.492 7 122025128.499 7        41.300    23220579.871 7  95084629.48347
        27.000    23220579.52347  23220579.918 3  91122767.865 3        32.400
  21939537.641 8 115293141.086 8        47.600                    89838801.13549
        35.700    21939541.98449
  24249296.664 6 127430926.195 6        39.400    24249303.574 6  99296854.37147
        25.400    24249303.09047
  22075859.078 8 116009535.318 8        45.100    22075867.832 8  90397093.37849
        47.800    22075867.07449  22075865.902 5  86630502.590 5        36.800
  21533330.109 9 113158461.098 9        48.400    21533335.723 9  88175484.59749
        38.700    21533335.30149  21533336.281 6  84501487.079 6        38.800
  20901030.742 9 109835781.663 9        51.500    20901037.285 9  85586384.64249
        55.200    20901036.95749  20901035.059 7  82020381.868 7        41.600
  20947573.039 9 110080357.855 9        50.300    20947577.996 9  85776931.06149
        55.000    20947577.44949
 23  4 10  0 20  0.0000000  0  9G16G30G04G20G05G06G11G09G07
  24156899.336 3 126945411.58913        33.700                    98918488.04455
        16.900    24156904.37145
  22285826.250 8 117112883.736 8        47.700    22285834.496 8  91256861.86449
        49.400    22285833.65649  22285831.582 6  87454492.770 6        39.400
  23237280.352 7 122112926.810 7        41.400    23237286.965 7  95153043.70847
        26.000    23237285.84847  23237287.609 3  91188331.509 3        32.000
  21924048.102 8 115211742.419 8        47.600                    89775373.61549
        36.100    21924052.50849
  24229314.289 6 127325917.140 6        39.400    24229320.492 6  99215029.10847
        25.400    24229319.84847
  22092417.898 8 116096551.305 8        45.700    22092426.418 8  90464898.01449
        47.400    22092425.43049  22092424.316 5  86695482.031 5        37.100
  21534677.758 9 113165541.660 9        48.700    21534683.410 9  88181001.90849
        39.400    21534682.77749  21534683.938 6  84506774.553 6        39.200
  20910489.195 9 109885487.116 9        50.200    20910495.953 9  85625116.16149
        55.300    20910495.13349  20910493.973 7  82057499.553 7        41.400
  20943208.648 9 110057422.349 9        49.900    20943213.402 9  85759059.25049
        55.000    20943212.93049
 23  4 10  0 20 30.0000000  0  9G16G30G04G20G05G06G11G09G07
  24158646.672 4 126954589.399 4        34.400                    98925639.55945
        16.900    24158650.50845
  22269257.586 8 117025815.768 8        47.100    22269265.844 8  91189016.73549
        49.500    22269265.08649  22269263.152 6  87389474.524 6        39.000
  23254007.516 7 122200828.933 7        41.200    23254014.180 7  95221538.84647
        26.300    23254013.55947  23254015.457 3  91253972.661 3        32.400
  21908611.594 8 115130622.889 8        47.000                    89712163.60549
        36.200    21908615.73849
  24209345.711 6 127220983.727 6        39.600    24209352.879 6  99133262.92946
        24.700    24209351.89546
  22109045.836 8 116183932.690 8        45.800    22109054.781 8  90532987.37249
        47.100    22109053.30549  22109052.344 5  86760734.343 5        37.600
  21536142.445 8 113173239.732 8        47.900    21536148.391 9  88187000.39449
        39.400    21536147.96949  21536149.145 6  84512523.063 6        39.000
  20920003.539 9 109935483.512 9        51.700    20920009.953 9  85664074.39549
        55.100    20920009.44549  20920007.863 7  82094834.538 7        41.400
  20938936.609 9 110034973.030 9        49.600    20938941.559 9  85741566.29049
        55.200    20938940.85549
 23  4 10  0 21  0.0000000  0  9G16G30G04G20G05G06G11G09G07
  24160509.477 3 126964385.91513        33.700                    98933273.24255
        16.300    24160514.10245
  22252749.961 8 116939067.526 8        47.200    22252757.961 9  91121420.74249
        49.800    22252757.28549  22252755.414 6  87324695.035 6        38.900
  23270754.898 7 122288834.118 7        41.100    23270761.324 7  95290114.27147
        28.600    23270760.66047  23270762.168 3  91319690.725 3        32.300
  21893228.633 8 115049784.800 8        47.800                    89649172.90849
        36.100    21893232.74649
  24189392.797 6 127116128.283 6        40.500    24189398.539 5  99051557.43146
        24.300    24189397.62546
  22125743.156 8 116271676.830 8        45.000    22125752.262 8  90601359.39549
        47.500    22125750.41849  22125749.824 5  86826257.503 5        37.600
  21537725.180 9 113181555.156 9        48.300    21537730.828 9  88193479.94549
        39.900    21537730.28549  21537731.273 6  84518732.616 6        39.600
  20929572.664 9 109985770.042 9        52.500    20929579.305 9  85703258.70149
        55.700    20929578.76649  20929576.750 7  82132386.178 7        41.400
  20934757.109 9 110013009.898 9        50.100    20934761.922 9  85724452.18349
        55.000    20934761.28949
 23  4 10  0 21 30.0000000  0  9G16G30G04G20G05G06G11G09G07
  24162492.047 3 126974801.39413        33.300                    98941389.21255
        16.300    24162495.71145
  22236303.453 9 116852640.939 9        48.600    22236311.848 8  91054075.38749
        49.900    22236310.89849  22236308.863 6  87260155.747 6        38.600
  23287520.680 7 122376941.259 7        41.300    23287527.867 7  95358769.13347
        29.300    23287527.31647  23287527.848 3  91385485.027 3        32.400
  21877899.703 9 114969230.456 9        48.300                    89586403.30249
        36.100    21877903.68049
  24169454.375 6 127011351.853 6        39.900    24169459.902 5  98969913.48446
        22.900    24169459.99246
  22142508.828 8 116359780.907 8        45.900    22142517.770 8  90670011.90249
        47.400    22142516.37149  22142515.516 5  86892049.494 5        37.200
  21539424.961 9 113190487.622 9        49.100    21539430.555 9  88200440.30149
        40.000    21539429.95749  21539431.113 6  84525402.994 6        39.200
  20939196.898 9 110036345.652 9        52.700    20939203.551 9  85742668.25349
        55.200    20939203.02749  20939200.750 7  82170153.653 7        41.300
  20930670.227 9 109991533.452 9        51.100    20930675.164 9  85707717.30549
        55.100    20930674.35549
 23  4 10  0 22  0.0000000  0  9G16G30G04G20G05G06G11G09G07
  24164591.719 4 126985834.999 4        34.300                    98949986.82345
        16.900    24164595.14845
  22219918.258 9 116766537.175 9        48.500    22219926.719 9  90986981.58149
        49.700    22219925.68849  22219923.750 6  87195857.535 6        38.700
  23304306.352 7 122465148.708 7        41.100    23304312.930 7  95427502.18447
        27.200    23304312.81347  23304312.855 2  91451354.184 2        31.400
  21862625.094 9 114888961.305 9        48.500                    89523855.92849
        36.000    21862629.02049
  24149530.906 6 126906656.636 6        40.800    24149537.871 6  98888332.83846
        24.100    24149537.77346
  22159342.234 8 116448241.385 8        45.500    22159351.063 8  90738942.11549
        47.300    22159350.14549  22159349.023 5  86958107.605 5        37.300
  21541241.875 9 113200036.018 9        48.300    21541247.477 9  88207880.60749
        39.500    21541246.80949  21541248.492 6  84532533.264 6        39.300
  20948875.648 9 110087208.567 9        51.300    20948882.273 9  85782301.68249
        55.700    20948882.01649  20948879.867 7  82208135.681 7        41.000
  20926675.922 9 109970543.173 9        49.800    20926680.957 9  85691361.25049
        55.600    20926680.18049
 23  4 10  0 22 30.0000000  0  9G16G30G04G20G05G06G11G09G07
  24166809.273 5 126997487.381 5        35.000                    98959066.61045
        16.900    24166812.92245
  22203595.273 9 116680758.963 9        48.300    22203603.500 9  90920141.44249
        49.800    22203602.69549  22203600.738 6  87131802.419 6        39.200
  23321110.445 6 122553456.200 6        40.900    23321116.934 7  95496313.17846
        24.700    23321116.30546  23321118.008 3  91517298.023 3        32.900
  21847405.211 8 114808980.552 8        47.700                    89461533.28349
        36.600    21847409.09849
  24129624.805 6 126802044.199 6        40.600    24129631.035 6  98806816.73647
        26.500    24129631.02347
  22176243.344 8 116537056.245 8        45.600    22176252.355 8  90808148.46649
        47.200    22176251.02049  22176249.949 5  87024430.368 5        37.000
  21543176.180 9 113210200.774 9        48.800    21543181.805 9  88215801.18849
        39.400    21543180.96549  21543182.969 6  84540123.820 6        39.800
  20958609.023 9 110138358.508 9        51.300    20958615.805 9  85822158.77849
        55.300    20958615.54749  20958613.332 7  82246332.057 7        41.100
  20922774.336 9 109950039.949 9        50.300    20922779.266 9  85675384.72649
        56.000    20922778.49649
 23  4 10  0 23  0.0000000  0  9G16G30G04G20G05G06G11G09G07
  24169144.141 5 127009758.512 5        36.100                    98968628.53445
        15.600    24169148.08645
  22187334.539 9 116595308.067 9        48.400    22187342.855 8  90853556.36449
        49.900    22187341.83649  22187339.957 6  87067991.723 6        38.800
  23337933.555 6 122641862.605 6        40.900    23337940.152 7  95565201.25047
        26.200    23337939.84847  23337941.461 3  91583315.749 3        33.000
  21832240.609 9 114729289.967 9        48.300                    89399436.73149
        36.800    21832244.56349
  24109733.414 6 126697516.228 6        40.800    24109738.566 5  98725366.37046
        23.000    24109738.30146
  22193211.148 8 116626222.511 8        46.300    22193219.848 8  90877628.64249
        47.000    22193218.64149  22193217.387 5  87091015.520 5        37.100
  21545227.617 9 113220981.288 9        48.800    21545233.078 9  88224201.58449
        38.800    21545232.64149  21545234.344 6  84548174.199 6        38.900
  20968397.211 9 110189794.335 9        51.300    20968403.777 9  85862238.62949
        55.600    20968403.29349  20968401.836 7  82284741.919 7        41.400
  20918965.344 9 109930023.664 9        50.800    20918970.141 9  85659787.64049
        55.400    20918969.53549
 23  4 10  0 23 30.0000000  0  9G16G30G04G20G05G06G11G09G07
  24171596.805 5 127022647.563 5        35.500                    98978671.98445
        16.300    24171600.00045
  22171136.141 9 116510185.995 9        48.300    22171144.789 8  90787227.51549
        50.000    22171143.72749  22171141.582 6  87004426.567 6        39.100
  23354775.414 6 122730366.571 6        40.800    23354782.613 7  95634165.34747
        26.600    23354782.08247  23354783.270 3  91649406.327 3        32.200
  21817131.695 9 114649891.644 9        48.000                    89337567.92749
        36.800    21817135.59449
  24089859.453 6 126593074.947 6        40.300    24089864.707 6  98643983.58846
        24.000    24089864.46146
  22210245.094 8 116715736.896 8        46.000    22210253.738 8  90947380.08649
        46.700    22210252.72749  22210251.477 5  87157860.673 5        37.000
  21547395.992 8 113232376.759 8        47.900    21547401.645 9  88233081.15849
        38.900    21547401.31649  21547402.715 6  84556683.791 6        38.700
  20978239.250 9 110241514.576 9        50.900    20978245.762 9  85902540.11149
        55.100    20978245.26649  20978243.762 7  82323364.184 7        41.200
  20915249.094 9 109910493.644 9        50.400    20915253.711 9  85644569.45449
        55.700    20915253.14849
 23  4 10  0 24  0.0000000  0  9G16G30G04G20G05G06G11G09G07
  24174167.680 5 127036155.232 5        35.600                    98989197.44845
        15.600    24174170.98445
  22155001.070 9 116425395.249 9        48.500    22155009.383 8  90721156.84249
        50.300    22155008.69949  22155006.684 6  86941108.861 6        39.800
  23371635.602 7 122818967.763 7        41.600    23371642.609 7  95703205.17447
        26.500    23371642.04347  23371643.457 2  91715569.503 2        31.900
  21802078.523 8 114570788.504 8        47.900                    89275929.12749
        36.900    21802082.49649
  24070001.078 6 126488722.027 6        40.500    24070007.488 6  98562669.67847
        25.800    24070006.23447
  22227344.859 8 116805597.247 8        46.100    22227353.746 8  91017401.10849
        46.600    22227352.66049  22227351.418 5  87224964.136 5        36.500
  21549681.875 8 113244387.422 8        47.800    21549687.293 9  88242440.10549
        39.200    21549686.44149  21549688.254 6  84565652.763 6        39.300
  20988135.117 9 110293518.875 9        51.400    20988141.973 9  85943062.94149
        55.300    20988141.32849  20988139.832 7  82362198.538 7        41.600
  20911625.320 9 109891451.414 9        50.000    20911630.039 9  85629731.36449
        55.200    20911629.40649
 23  4 10  0 24 30.0000000  0  9G16G30G04G20G05G06G11G09G07
  24176855.641 5 127050281.452 5        35.200                    99000204.93245
        16.900    24176858.87945
  22138929.352 9 116340937.595 9        49.100    22138937.820 9  90655345.72549
        50.500    22138937.00449  22138934.918 6  86878039.880 6        39.200
  23388514.781 7 122907665.002 7        42.600    23388521.102 7  95772319.87747
        26.900    23388520.21147  23388522.090 2  91781804.415 2        31.900
  21787082.367 9 114491982.862 9        48.000                    89214522.14449
        36.900    21787086.37549
  24050161.055 6 126384459.538 6        40.600    24050166.934 6  98481426.19747
        26.500    24050166.08247
  22244510.313 8 116895800.556 8        45.900    22244519.047 8  91087689.36349
        46.700    22244517.78949  22244516.516 5  87292323.700 5        36.600
  21552084.492 8 113257012.532 8        47.500    21552089.555 9  88252277.84049
        39.400    21552088.75049  21552090.598 6  84575080.613 6        39.000
  20998085.406 9 110345806.041 9        51.700    20998091.953 9  85983806.17349
        55.200    20998091.37949  20998089.738 6  82401244.131 6        40.900
  20908094.711 9 109872896.708 9        50.000    20908099.172 9  85615273.17149
        55.500    20908098.69149
 23  4 10  0 25  0.0000000  0  9G16G30G04G20G05G06G11G09G07
  24179660.922 4 127065025.714 4        34.400                    99011693.96645
        17.400    24179665.18445
  22122921.477 9 116256814.898 9        48.400    22122929.543 8  90589795.59849
        50.300    22122928.69549  22122926.566 6  86815221.033 6        39.700
  23405411.234 7 122996457.321 7        42.200    23405417.418 7  95841508.69047
        25.600    23405416.55547  23405418.926 3  91848110.350 3        32.800
  21772143.313 8 114413476.715 8        47.300                    89153348.53349
        36.900    21772147.07849
  24030337.383 6 126280289.385 6        38.600    24030343.863 5  98400254.72046
        23.400    24030342.59446
  22261740.039 8 116986343.882 8        45.700    22261748.953 8  91158242.57949
        46.700    22261747.55549  22261746.297 5  87359937.190 5        37.300
  21554603.648 8 113270251.628 8        47.400    21554608.785 9  88262594.01249
        38.500    21554608.03149  21554609.844 6  84584966.942 6        38.900
  21008088.727 9 110398375.029 9        51.400    21008095.422 9  86024769.00749
        55.400    21008094.92649  21008093.309 6  82440500.188 6        40.900
  20904656.375 9 109854829.627 9        50.200    20904661.063 9  85601194.94049
        55.100    20904660.62149
 23  4 10  0 25 30.0000000  0  9G16G30G04G20G05G06G11G09G07
  24182583.961 4 127080387.800 4        34.500                    99023664.44945
        18.300    24182588.37945
  22106977.258 9 116173028.805 9        48.400    22106985.617 8  90524507.76549
        50.000    22106984.34849  22106982.863 6  86752653.531 6        39.200
  23422325.367 7 123085343.575 7        41.100    23422332.441 7  95910770.66847
        27.100    23422331.77047  23422333.066 3  91914486.360 3        32.100
  21757261.320 8 114335272.323 8        47.600                    89092410.06449
        37.200    21757265.42249
  24010533.031 6 126176213.659 6        39.900    24010538.734 6  98319156.72147
        25.300    24010537.93847
  22279033.906 8 117077224.232 8        45.700    22279042.898 8  91229058.40049
        46.500    22279041.88349  22279040.238 5  87427802.373 5        37.200
  21557239.531 8 113284103.909 8        47.200    21557244.941 9  88273387.98449
        38.700    21557244.51249  21557246.031 6  84595311.153 6        38.400
  21018145.766 9 110451224.595 9        50.700    21018152.359 9  86065950.48049
        55.200    21018151.89149  21018150.090 6  82479965.776 6        40.900
  20901310.906 9 109837249.861 9        49.000    20901315.918 9  85587496.42449
        55.900    20901315.16849
 23  4 10  0 26  0.0000000  0  9G16G30G04G20G05G06G11G09G07
  24185624.977 4 127096367.495 4        34.800                    99036116.17945
        16.300    24185629.68045
  22091097.781 9 116089581.290 9        48.000    22091106.117 8  90459483.76049
        50.500    22091105.09449  22091103.094 6  86690338.854 6        39.200
  23439257.516 6 123174322.892 6        40.400    23439264.813 7  95980105.15446
        24.900    23439264.54746  23439265.441 3  91980710.94113        32.200
  21742437.086 8 114257371.754 8        47.600                    89031708.34049
        37.000    21742441.25049
  23990744.852 6 126072234.257 6        38.200    23990752.844 6  98238133.89247
        25.800    23990752.72347
  22296391.195 7 117168438.807 7        44.000    22296400.508 8  91300134.65649
        46.000    22296399.33649  22296397.867 5  87495917.088 5        36.900
  21559992.164 8 113298568.989 8        47.900    21559997.680 9  88284659.46549
        39.000    21559997.08649  21559998.477 6  84606113.013 6        38.800
  21028255.813 9 110504353.837 9        50.500    21028262.613 9  86107349.88449
        55.000    21028261.95349  21028260.395 7  82519640.199 7        41.200
  20898058.352 9 109820157.480 9        49.700    20898063.223 9  85574177.70249
        55.600    20898062.68049
 23  4 10  0 26 30.0000000  0  9G16G30G04G20G05G06G11G09G07
  24188783.750 4 127112964.632 4        34.100                    99049049.04545
        15.600    24188787.64845
  22075283.281 9 116006474.200 9        48.900    22075291.387 9  90394725.02549
        50.800    22075290.60549  22075288.066 6  86628278.412 6        39.700
  23456207.570 7 123263394.315 7        41.400    23456214.375 7  96049511.41147
        26.100    23456213.97747  23456214.367 3  92047225.266 3        32.100
  21727671.586 8 114179777.590 8        47.100                    88971245.37049
        37.100    21727675.80949
  23970978.352 6 125968352.373 6        40.100    23970983.797 6  98157187.03446
        24.500    23970983.30946
  22313812.023 8 117259984.716 8        46.100    22313820.859 8  91371469.09649
        45.900    22313820.10949  22313818.586 5  87564279.252 5        36.800
  21562861.375 8 113313646.215 8        47.300    21562866.762 9  88296407.94849
        38.900    21562866.32049  21562867.699 6  84617371.958 6        39.000
  21038418.953 9 110557761.737 9        51.300    21038425.777 9  86148966.41449
        55.300    21038425.32449  21038423.574 6  82559522.693 6        40.800
  20894898.422 9 109803552.753 9        49.300    20894903.438 9  85561238.96949
        56.200    20894902.82449
 23  4 10  0 27  0.0000000  0  9G16G30G04G20G05G06G11G09G07
  24192059.078 4 127130178.789 4        34.300                    99062462.72945
        17.400    24192063.48045
  22059533.344 9 115923709.372 9        49.400    22059541.574 9  90330232.97849
        50.800    22059540.65249  22059538.496 6  86566473.547 6        39.700
  23473174.805 7 123352556.896 7        41.300    23473180.918 7  96118988.72147
        25.400    23473180.33247  23473181.840 2  92113807.708 2        31.500
  21712964.586 8 114102491.858 8        47.500                    88911022.74549
        37.400    21712968.68449
  23951228.852 6 125864570.210 6        39.200    23951234.488 5  98076317.80646
        24.700    23951232.94146
  22331295.414 7 117351859.061 7        44.700    22331304.094 8  91443059.46449
        46.200    22331303.09049  22331301.668 5  87632886.692 5        36.800
  21565846.641 8 113329334.993 8        47.300    21565852.348 9  88308632.95949
        38.900    21565851.80149  21565852.824 6  84629087.579 6        39.400
  21048635.164 9 110611447.207 9        50.800    21048641.730 9  86190799.23749
        54.900    21048641.05949  21048639.828 7  82599612.476 7        41.100
  20891831.789 9 109787435.623 9        49.400    20891836.422 9  85548680.17449
        55.700    20891835.97749
 23  4 10  0 27 30.0000000  0  9G16G30G04G20G05G06G11G09G07
  24195452.234 4 127148009.403 4        34.600                    99076356.69945
        15.600    24195455.49245
  22043848.930 9 115841288.557 9        48.600    22043857.320 9  90266009.00449
        50.300    22043856.09849  22043854.668 6  86504925.565 6        39.400
  23490158.852 6 123441809.589 6        40.800    23490165.785 6  96188536.22947
        25.200    23490164.87947  23490166.668 3  92180457.371 3        32.900
  21698316.633 8 114025516.855 8        47.600                    88851042.23749
        37.300    21698320.86749
  23931498.836 6 125760890.105 6        38.600    23931505.668 6  97995528.17847
        25.200    23931505.01247
  22348840.445 8 117444058.880 8        45.100    22348849.313 8  91514903.45249
        46.100    22348848.04349  22348846.746 5  87701737.182 5        36.500
  21568948.430 9 113345634.581 9        48.100    21568954.051 9  88321333.93049
        39.200    21568953.39849  21568954.398 6  84641259.337 6        38.800
  21058904.070 9 110665409.189 9        51.200    21058910.250 9  86232847.52749
        55.300    21058909.65249  21058908.480 6  82639908.760 6        40.800
  20888857.180 9 109771805.564 9        49.400    20888862.359 9  85536500.91449
        55.200    20888861.60949
 23  4 10  0 28  0.0000000  0  9G16G30G04G20G05G06G11G09G07
  24198962.414 5 127166456.670 5        35.200                    99090731.22445
        16.300    24198966.43045
  22028230.695 9 115759213.531 9        48.800    22028238.961 8  90202054.47149
        50.500    22028238.00449  22028236.094 6  86443635.817 6        39.900
  23507160.234 6 123531151.450 6        40.900    23507167.336 7  96258153.24146
        24.800    23507166.77346  23507167.766 3  92247173.681 3        32.800
  21683728.563 8 113948854.739 8        47.600                    88791305.54549
        37.400    21683732.48849
  23911789.266 6 125657313.926 6        39.400    23911795.426 6  97914819.51847
        25.400    23911794.77347
  22366446.813 7 117536581.228 7        44.500    22366455.801 8  91586998.74549
        46.000    22366454.84849  22366453.137 5  87770828.494 5        36.500
  21572166.234 9 113362544.265 9        48.300    21572172.055 9  88334510.30349
        39.100    21572171.55149  21572172.176 6  84653886.694 6        38.700
  21069224.891 9 110719646.594 9        51.000    21069231.492 9  86275110.42449
        55.000    21069230.76649  21069229.133 6  82680410.693 6        40.600
  20885975.859 9 109756663.329 9        50.000    20885980.695 9  85524701.79249
        55.600    20885980.09849
 23  4 10  0 28 30.0000000  0  9G16G30G04G20G05G06G11G09G07
  24202590.289 5 127185520.033 5        36.100                    99105585.80445
        16.900    24202594.52345
  22012678.570 9 115677486.314 9        49.500    22012686.891 9  90138370.95949
        51.200    22012685.84449  22012683.891 6  86382605.810 6        40.100
  23524178.164 7 123620581.753 7        41.200    23524185.262 7  96327839.15246
        23.600    23524184.52046  23524185.496 3  92313955.978 3        32.100
  21669200.063 8 113872508.138 8        47.900                    88731814.70549
        37.700    21669204.12149
  23892099.594 6 125553843.476 6        39.600    23892104.625 6  97834193.20547
        25.300    23892104.04347
  22384113.930 7 117629423.395 7        44.900    22384123.066 8  91659343.24949
        45.700    22384121.89549  22384120.430 5  87840158.626 5        36.700
  21575499.945 8 113380063.546 8        47.900    21575505.727 9  88348161.68649
        39.600    21575505.50049  21575506.094 6  84666969.265 6        38.600
  21079598.273 9 110774158.654 9        50.300    21079604.820 9  86317587.34749
        55.100    21079604.32049  21079602.426 6  82721117.749 6        40.900
  20883187.305 9 109742008.906 9        49.900    20883191.980 9  85513282.76249
        55.700    20883191.43849
 23  4 10  0 29  0.0000000  0  9G16G30G04G20G05G06G11G09G07
  24206335.633 5 127205199.083 5        37.000                    99120920.15345
        17.800    24206339.67245
  21997192.734 9 115596108.798 9        49.200    21997201.207 9  90074959.93349
        51.000    21997200.30549  21997198.063 6  86321836.928 6        39.800
  23541212.891 7 123710099.608 7        41.100    23541219.430 6  96397593.29046
        24.900    23541219.03946  23541219.836 2  92380803.663 2        31.400
  21654732.453 8 113796479.051 8        47.500                    88672571.28549
        37.800    21654736.39149
  23872430.109 6 125450480.770 6        39.900    23872436.566 6  97753650.87847
        27.100    23872435.97747
  22401841.625 7 117722582.550 7        44.600    22401850.672 8  91731934.76449
        45.500    22401849.43049  22401848.094 5  87909725.487 5        37.100
  21578950.117 9 113398191.776 9        48.000    21578955.391 9  88362287.56749
        39.300    21578955.15649  21578956.176 6  84680506.587 6        38.900
  21090023.695 9 110828944.379 9        51.500    21090030.117 9  86360277.50349
        55.000    21090029.75849  21090027.742 7  82762029.139 7        41.100
  20880491.305 9 109727842.246 9        49.300    20880496.266 9  85502243.82349
        56.100    20880495.64549
 23  4 10  0 29 30.0000000  0  9G16G30G04G20G05G06G11G09G07
  24210197.734 5 127225493.149 5        37.400                    99136733.69545
        16.300    24210201.22745
  21981774.023 9 115515082.389 9        49.200    21981782.301 9  90011822.50349
        50.900    21981781.30549  21981779.258 6  86261330.241 6        39.800
  23558264.273 6 123799703.725 6        40.800    23558270.285 6  96467414.67246
        22.600    23558269.84046  23558271.059 2  92447715.87012        31.100
  21640325.156 8 113720769.792 8        47.700                    88613577.06949
        37.500    21640329.36349
  23852782.195 6 125347227.574 6        40.400    23852787.871 6  97673193.91047
        26.200    23852788.30947
  22419628.898 7 117816055.381 7        44.700    22419638.184 8  91804770.70049
        45.600    22419636.85549  22419635.883 5  87979526.592 5        37.300
  21582515.211 8 113416927.860 8        47.200    21582520.793 9  88376887.08749
        39.700    21582520.11749  21582521.414 6  84694497.775 6        39.200
  21100500.898 9 110884002.384 9        50.800    21100507.266 9  86403179.83549
        55.000    21100506.77349  21100505.066 6  82803143.889 6        40.800
  20877888.383 9 109714162.600 9        49.400    20877892.957 9  85491584.36749
        55.300    20877892.47749
 23  4 10  0 30  0.0000000  0  9G16G30G04G20G05G06G11G09G07
  24214176.125 5 127246402.179 5        37.000                    99153026.43045
        16.900    24214179.68445
  21966422.477 9 115434409.287 9        49.200    21966430.730 9  89948960.38449
        51.100    21966429.64149  21966427.645 6  86201087.363 6        39.500
  23575331.516 7 123889393.590 7        41.200    23575338.266 7  96537302.83846
        24.100    23575337.67246  23575339.492 2  92514692.023 2        31.400
  21625979.531 8 113645382.865 8        47.800                    88554834.03049
        37.900    21625983.70349
  23833153.594 6 125244085.614 6        38.900    23833159.602 6  97592823.56546
        24.800    23833159.77746
  22437475.461 7 117909839.412 7        44.500    22437484.262 8  91877849.12649
        45.000    22437483.33649  22437482.273 5  88049560.076 5        37.100
  21586196.227 8 113436271.423 8        47.300    21586201.852 9  88391959.99449
        39.400    21586201.03549  21586202.379 6  84708942.635 6        38.600
  21111029.734 9 110939332.107 9        50.700    21111036.266 9  86446293.88449
        54.800    21111035.58249  21111034.195 6  82844461.524 6        40.500
  20875377.852 9 109700970.443 9        49.800    20875382.656 9  85481304.77649
        56.100    20875382.00449
 23  4 10  0 30 30.0000000  0  9G16G30G04G20G05G06G11G09G07
  24218271.547 5 127267925.559 5        35.400                    99169797.98145
        17.800    24218275.42645
  21951138.695 9 115354091.159 9        49.200    21951146.629 9  89886374.86049
        51.300    21951145.63349  21951143.723 6  86141109.553 6        39.700
  23592415.352 6 123979168.184 6        40.500    23592422.141 7  96607257.04146
        24.300    23592421.82046  23592423.082 2  92581731.463 2        31.800
  21611695.664 8 113570320.422 8        47.200                    88496343.82849
        37.700    21611699.66449
  23813549.258 6 125141057.131 6        40.600    23813553.922 6  97512541.65747
        25.300    23813553.48047
  22455380.617 7 118003931.532 7        44.400    22455389.566 8  91951167.63149
        45.000    22455388.87949  22455387.238 5  88119823.626 5        35.900
  21589992.750 9 113456221.535 9        48.500    21589998.078 9  88407505.51749
        39.000    21589997.81349  21589998.598 6  84723840.431 6        38.900
  21121610.125 9 110994932.367 9        50.700    21121616.563 9  86489618.75049
        55.000    21121616.14849  21121614.523 7  82885981.148 7        41.100
  20872959.961 9 109688265.446 9        49.100    20872964.895 9  85471404.79349
        55.700    20872964.28549
 23  4 10  0 31  0.0000000  0  9G16G30G04G20G05G06G11G09G07
  24222484.234 5 127290062.608 5        35.300                    99187047.62945
        17.400    24222488.48845
  21935922.156 9 115274129.819 9        49.100    21935930.434 9  89824067.34349
        51.300    21935929.42249  21935927.711 6  86081398.211 6        39.900
  23609514.492 6 124069026.635 6        39.900    23609521.391 7  96677276.57146
        23.600    23609521.23446  23609522.137 2  92648833.526 2        31.500
  21597473.836 8 113495584.782 8        47.800                    88438108.27749
        38.000    21597477.86749
  23793964.508 6 125038144.568 6        39.500    23793972.086 6  97432350.09147
        26.800    23793971.10547
  22473344.063 8 118098328.903 8        45.100    22473353.113 8  92024723.98849
        45.300    22473351.89849  22473350.555 5  88190315.120 5        35.900
  21593904.266 9 113476777.413 9        48.100    21593909.789 9  88423523.06949
        39.100    21593909.25049  21593910.367 6  84739190.569 6        38.700
  21132241.563 9 111050802.206 9        49.900    21132248.195 9  86533153.67549
        54.800    21132247.89849  21132245.953 6  82927702.135 6        40.400
  20870635.195 9 109676047.684 9        49.600    20870639.973 9  85461884.46849
        55.900    20870639.38749
 23  4 10  0 31 30.0000000  0  9G16G30G04G20G05G06G11G09G07
  24226813.750 5 127312813.002 5        36.600                    99204775.28445
        18.600    24226817.27745
  21920773.953 9 115194526.908 9        49.500    21920782.438 9  89762039.12949
        51.400    21920781.80549  21920779.660 6  86021954.531 6        40.100
  23626629.313 6 124158967.997 6        39.500    23626636.086 6  96747360.68046
        22.500    23626636.19146  23626636.613 1  92715997.438 1        30.500
  21583314.688 9 113421178.251 9        48.800                    88380129.17549
        38.100    21583318.66849
  23774403.680 6 124935349.530 6        40.100    23774409.836 6  97352250.15447
        25.800    23774408.97747
  22491364.352 8 118193028.474 8        45.100    22491373.734 8  92098515.81149
        44.800    22491372.74249  22491371.438 5  88261032.297 5        36.400
  21597930.859 8 113497938.100 8        47.800    21597936.430 9  88440011.89349
        38.600    21597935.77749  21597937.246 6  84754992.396 6        39.000
  21142924.430 9 111106940.537 9        50.100    21142931.039 9  86576897.81949
        54.700    21142931.01249  21142928.445 6  82969623.590 6        40.600
  20868402.875 9 109664316.857 9        50.000    20868407.664 9  85452743.57149
        55.600    20868407.19949
 23  4 10  0 32  0.0000000  0  9G16G30G04G20G05G06G11G09G07
  24231259.773 5 127336176.121 5        36.900                    99222980.35445
        16.900    24231263.26245
  21905695.000 9 115115284.324 9        49.300    21905703.090 9  89700291.69949
        51.800    21905702.53949  21905699.945 6  85962779.903 6        39.500
  23643760.969 6 124248991.371 6        39.700    23643766.813 6  96817508.75346
        22.900    23643766.48846  23643767.121 1  92783222.64811        29.400
  21569218.742 9 113347103.010 9        48.800                    88322408.23049
        37.900    21569222.63349
  23754865.516 7 124832674.441 7        41.000    23754870.980 6  97272243.58147
        25.600    23754868.90247
  22509442.328 8 118288027.445 8        45.500    22509451.664 8  92172540.93749
        45.000    22509450.64849  22509449.602 5  88331973.064 5        36.300
  21602072.820 9 113519702.836 9        49.200    21602078.199 9  88456971.42349
        39.200    21602077.59049  21602079.023 6  84771245.254 6        38.800
  21153658.086 9 111163346.475 9        49.400    21153664.852 9  86620850.48349
        54.700    21153664.81349  21153662.117 6  83011744.890 6        40.400
  20866263.406 9 109653073.364 9        50.300    20866268.113 9  85443982.41649
        55.900    20866267.46149
 23  4 10  0 32 30.0000000  0  9G16G30G04G20G05G06G11G09G07
  24235821.977 5 127360151.396 5        36.400                    99241662.36645
        17.800    24235825.22345
  21890684.383 9 115036403.725 9        49.100    21890692.660 9  89638826.32049
        51.600    21890691.70749  21890689.395 6  85903875.583 6        39.700
  23660907.086 6 124339095.854 6        40.500    23660913.656 7  96887720.02746
        22.500    23660913.35946  23660914.820 1  92850508.37111        30.900
  21555186.313 8 113273361.384 8        47.700                    88264947.23849
        38.100    21555190.15649
  23735349.492 6 124730120.475 6        39.800    23735356.379 6  97192331.43247
        27.400    23735355.33247
  22527576.211 8 118383322.714 8        45.000    22527585.797 8  92246796.95849
        44.800    22527584.40649  22527583.672 5  88403135.065 5        36.100
  21606329.297 9 113542070.667 9        48.500    21606334.738 9  88474400.88549
        39.400    21606334.02049  21606335.465 6  84787948.493 6        38.600
  21164442.609 9 111220018.894 9        49.900    21164449.250 9  86665010.78249
        54.500    21164449.05549  21164446.824 6  83054065.185 6        40.500
  20864216.547 9 109642316.636 9        49.800    20864221.184 9  85435600.55849
        55.400    20864220.60549
 23  4 10  0 33  0.0000000  0  9G16G30G04G20G05G06G11G09G07
  24240500.570 5 127384738.205 5        35.700                    99260820.86045
        17.800    24240504.05945
  21875743.063 9 114957886.806 9        49.300    21875751.188 9  89577644.33949
        51.300    21875750.08649  21875748.254 6  85845242.870 6        40.100
  23678068.664 6 124429280.591 6        40.500    23678075.984 7  96957993.78646
        23.000    23678075.70346  23678076.617 2  92917854.111 2        31.200
  21541217.586 8 113199955.745 8        47.800                    88207748.05449
        38.500    21541221.57449
  23715857.828 6 124627690.294 6        39.900    23715864.164 6  97112515.80147
        26.200    23715863.43447
  22545766.375 7 118478911.385 7        44.400    22545775.527 8  92321281.60749
        44.400    22545774.46149  22545773.258 5  88474516.134 5        36.000
  21610700.031 9 113565040.633 9        48.000    21610705.547 9  88492299.55549
        38.700    21610705.00849  21610706.383 6  84805101.381 6        39.400
  21175277.508 9 111276956.823 9        49.100    21175284.035 9  86709377.99149
        54.400    21175283.73049  21175281.914 6  83096583.766 6        40.200
  20862262.000 9 109632046.528 9        49.400    20862266.852 9  85427597.89049
        55.400    20862266.19149
 23  4 10  0 33 30.0000000  0  9G16G30G04G20G05G06G11G09G07
  24245295.156 5 127409935.825 5        35.400                    99280455.39245
        17.400    24245299.68445
  21860871.500 9 114879735.432 9        49.900    21860879.402 9  89516747.19149
        51.900    21860878.82849  21860876.629 6  85786883.133 6        40.100
  23695245.563 6 124519544.728 6        40.100    23695252.410 7  97028329.44746
        24.400    23695252.05946  23695253.191 1  92985259.14711        30.400
  21527313.211 9 113126888.365 9        49.600                    88150812.44949
        38.400    21527317.38349
  23696390.305 6 124525385.690 6        40.900    23696395.145 5  97032797.91547
        26.500    23696393.80947
  22564011.617 7 118574790.549 7        43.800    22564020.859 8  92395992.60449
        44.300    22564019.68849  22564018.383 5  88546114.202 5        36.500
  21615185.641 8 113588611.910 8        47.300    21615191.090 9  88510666.76549
        38.600    21615190.58249  21615192.152 6  84822703.293 6        38.300
  21186162.773 9 111334159.338 9        48.700    21186169.395 9  86753951.36949
        54.200    21186168.88749  21186167.230 6  83139299.896 6        40.800
  20860400.227 9 109622262.789 9        49.200    20860405.168 9  85419974.20749
        56.300    20860404.57049
 23  4 10  0 34  0.0000000  0  9G16G30G04G20G05G06G11G09G07
  24250206.086 5 127435743.599 5        35.000                    99300565.34145
        17.400    24250210.59045
  21846069.570 9 114801951.124 9        50.000    21846077.598 9  89456136.07149
        52.000    21846077.03549  21846074.262 6  85728797.458 6        40.100
  23712437.461 6 124609887.261 6        40.600    23712443.719 6  97098726.17046
        22.800    23712442.82046  23712443.715 1  93052722.632 1        29.500
  21513473.742 9 113054161.622 9        48.600                    88094142.27149
        38.600    21513478.04749
  23676945.641 6 124423208.896 6        39.400    23676952.766 6  96953179.66247
        25.500    23676951.78147
  22582311.656 7 118670957.191 7        44.400    22582320.605 8  92470927.59749
        44.100    22582319.65649  22582318.590 5  88617926.893 5        35.700
  21619785.289 9 113612783.341 9        48.400    21619790.805 9  88529501.63849
        38.400    21619790.19949  21619791.855 6  84840753.382 6        38.300
  21197098.125 9 111391625.304 9        48.800    21197104.770 9  86798730.02749
        54.100    21197104.58649  21197102.711 6  83182212.775 6        40.900
  20858631.047 9 109612965.034 9        49.600    20858635.680 9  85412729.21849
        55.500    20858635.18849
 23  4 10  0 34 30.0000000  0  9G16G30G04G20G05G06G11G09G07
  24255232.781 4 127462161.270 4        34.600                    99321150.55145
        19.300    24255237.60245
  21831337.906 9 114724535.968 9        49.400    21831346.148 9  89395812.60249
        51.900    21831345.35249  21831342.738 6  85670987.477 6        39.700
  23729643.766 6 124700307.727 6        40.100    23729649.793 6  97169183.67646
        22.500    23729649.32846  23729650.113 1  93120244.43711        30.000
  21499699.586 9 112981777.980 9        48.800                    88037739.45049
        38.600    21499703.76649
  23657527.719 6 124321161.806 6        40.900    23657534.047 6  96873662.55247
        28.300    23657533.87947
  22600665.391 7 118767408.615 7        44.500    22600674.828 8  92546084.51749
        44.600    22600673.79749  22600672.504 5  88689952.258 5        35.400
  21624499.336 8 113637554.332 8        47.200    21624504.582 9  88548803.69049
        39.200    21624503.89849  21624505.691 6  84859251.160 6        38.900
  21208083.586 9 111449354.122 9        49.100    21208090.406 9  86843713.50349
        54.200    21208090.13749  21208087.762 6  83225321.942 6        40.500
  20856954.016 9 109604153.769 9        49.800    20856959.008 9  85405863.28349
        56.100    20856958.40249
 23  4 10  0 35  0.0000000  0  9G16G30G04G20G05G06G11G09G07
  24260376.141 4 127489188.26214        34.600                    99342210.55855
        18.300    24260380.57045
  21816676.828 9 114647491.508 9        49.600    21816684.969 9  89335777.98449
        51.900    21816683.92249  21816681.859 6  85613454.310 6        40.000
  23746864.398 6 124790805.085 6        39.200    23746871.414 7  97239701.05346
        22.800    23746871.09846  23746872.117 1  93187823.571 1        30.700
  21485991.344 9 112909739.744 9        48.500                    87981605.77549
        38.900    21485995.10949
  23638133.000 6 124219246.546 6        40.200    23638138.766 6  96794248.07246
        23.900    23638138.35946
  22619073.711 7 118864141.733 7        44.600    22619082.703 8  92621460.93149
        44.500    22619081.72349  22619080.570 5  88762188.016 5        36.000
  21629326.633 8 113662923.676 8        47.100    21629332.090 9  88568571.99749
        38.700    21629331.36349  21629333.305 6  84878195.804 6        39.400
  21219118.938 9 111507344.598 9        48.800    21219125.586 9  86888900.86749
        54.400    21219125.48049  21219122.875 6  83268626.497 6        40.500
  20855369.914 9 109595828.545 9        49.900    20855374.762 9  85399376.10449
        56.400    20855374.24649
 23  4 10  0 35 30.0000000  0  9G16G30G04G20G05G06G11G09G07
  24265634.484 5 127516822.97815        35.000                    99363744.13955
        18.600    24265639.98845
  21802086.648 9 114570819.339 9        49.500    21802094.617 9  89276033.47049
        52.100    21802093.73049  21802091.820 6  85556199.167 6        40.600
  23764100.133 6 124881378.354 6        40.200    23764107.477 7  97310277.56346
        24.200    23764107.20746  23764108.414 2  93255459.361 2        31.600
  21472348.766 9 112838048.711 9        48.700                    87925742.64849
        38.600    21472353.01649
  23618765.438 6 124117465.245 6        40.200    23618771.152 6  96714938.03847
        26.500    23618770.12547
  22637534.492 8 118961153.477 8        45.000    22637543.418 8  92697054.47049
        44.500    22637542.52049  22637541.398 5  88834631.807 5        35.500
  21634267.883 8 113688890.257 8        46.800    21634273.512 9  88588805.68949
        38.000    21634272.62549  21634274.742 6  84897586.391 6        39.400
  21230203.758 9 111565595.685 9        48.600    21230210.492 9  86934291.30549
        54.300    21230210.42249  21230207.984 6  83312125.654 6        40.300
  20853878.188 9 109587988.916 9        50.500    20853882.875 9  85393267.32749
        55.600    20853882.35549
 23  4 10  0 36  0.0000000  0  9G16G30G04G20G05G06G11G09G07
  24271009.445 5 127545064.524 5        37.000                    99385750.54145
        19.300    24271013.95345
  21787567.492 9 114494520.686 9        49.700    21787575.676 9  89216580.00049
        52.500    21787574.68849  21787572.465 6  85499222.936 6        40.400
  23781350.219 6 124972026.236 6        39.500    23781356.805 6  97380912.20946
        22.500    23781356.25446  23781357.441 1  93323150.866 1        30.700
  21458773.031 9 112766706.689 9        49.300                    87870151.47249
        39.000    21458776.88349
  23599423.555 7 124015819.428 7        43.000    23599429.668 7  96635733.53948
        30.600    23599429.19148
  22656047.289 7 119058440.440 7        44.600    22656056.523 8  92772862.44649
        44.000    22656055.38349  22656054.340 5  88907281.110 5        36.000
  21639322.313 8 113715452.513 8        47.300    21639328.289 9  88609503.53649
        38.300    21639327.50449  21639329.375 6  84917421.833 6        38.800
  21241337.938 9 111624105.965 9        48.500    21241344.543 9  86979883.71749
        54.100    21241344.25449  21241341.961 7  83355818.372 7        41.000
  20852478.758 9 109580634.033 9        50.100    20852483.301 9  85387536.26049
        56.200    20852482.89849
 23  4 10  0 36 30.0000000  0 10G16G13G30G04G20G05G06G11G09G07
  24276498.648 6 127573912.329 6        38.100                    99408229.36945
        19.000    24276503.28545
  24943122.672 4 131076993.53614        34.000

  21773119.422 9 114418597.400 9        49.900    21773127.695 9  89157419.02349
        52.300    21773126.91049  21773124.301 6  85442526.991 6        39.800
  23798613.555 6 125062748.069 6        38.800    23798620.148 6  97451604.52046
        22.200    23798619.05146  23798620.168 1  93390897.698 1        29.500
  21445264.094 9 112695716.358 9        49.900                    87814834.35249
        38.900    21445267.50049
  23580105.180 6 123914311.493 6        39.400    23580112.094 6  96556636.46947
        25.800    23580111.16047
  22674611.969 7 119155999.785 7        44.400    22674621.445 8  92848882.67249
        43.800    22674620.28149  22674619.188 5  88980133.860 5        35.800
  21644490.328 8 113742609.533 8        47.900    21644496.094 9  88630664.83049
        38.200    21644495.33649  21644497.070 6  84937701.419 6        39.000
  21252521.102 9 111682874.574 9        49.100    21252527.797 9  87025677.42949
        53.800    21252527.52749  21252525.730 6  83399704.030 6        39.900
  20851171.117 9 109573763.648 9        50.100    20851176.027 9  85382182.72349
        56.200    20851175.46549
 23  4 10  0 37  0.0000000  0 10G16G13G30G04G20G05G06G11G09G07
  24282103.859 6 127603366.025 6        38.600                    99431180.27245
        19.000    24282107.64845
  24924026.781 5 130976644.640 5        35.100                   102059741.60555
        15.600    24924032.66045
  21758743.531 9 114343051.386 9        49.200    21758751.832 9  89098552.04249
        52.200    21758750.91449  21758748.820 6  85386112.803 6        39.800
  23815891.164 6 125153543.349 6        39.100    23815898.492 6  97522354.05946
        22.000    23815897.28546  23815898.281 1  93458699.31411        29.100
  21431822.328 9 112625080.362 9        49.100                    87759793.31749
        39.000    21431825.89849
  23560817.664 7 123812943.545 7        42.800    23560822.352 6  96477648.48247
        28.300    23560821.00847
  22693228.414 7 119253828.868 7        44.300    22693237.750 8  92925113.07949
        43.400    22693236.66449  22693235.598 5  89053187.959 5        35.700
  21649771.250 8 113770360.497 8        47.000    21649776.781 9  88652288.95349
        38.800    21649776.05149  21649778.004 6  84958424.521 6        39.000
  21263753.430 9 111741900.874 9        49.200    21263760.195 9  87071671.93849
        53.900    21263759.93049  21263758.211 6  83443782.074 6        40.300
  20849956.281 9 109567378.330 9        50.000    20849960.766 9  85377207.15749
        55.400    20849960.12549
 23  4 10  0 37 30.0000000  0 10G16G13G30G04G20G05G06G11G09G07
  24287823.391 5 127633424.040 5        37.100                    99454602.14245
        19.000    24287827.42645
  24904944.680 5 130876366.335 5        37.500                   101981602.78945
        17.800    24904951.19945
  21744439.602 9 114267883.930 9        50.300    21744447.871 9  89039980.01949
        52.500    21744446.89549  21744444.832 6  85329981.318 6        39.800
  23833182.797 6 125244410.759 6        39.400    23833190.246 7  97593159.81346
        24.100    23833189.77046  23833191.289 1  93526554.86111        30.400
  21418448.516 9 112554800.410 9        49.200                    87705029.72949
        38.700    21418452.08249
  23541553.086 7 123711717.441 7        41.000    23541560.332 7  96398771.01047
        28.600    23541560.52747
  22711895.578 7 119351924.245 7        44.200    22711904.594 8  93001550.98949
        43.800    22711903.64149  22711902.176 5  89126440.936 5        35.500
  21655164.867 8 113798703.888 8        47.500    21655170.375 9  88674374.69149
        38.400    21655169.91849  21655171.578 6  84979590.006 6        39.000
  21275034.727 9 111801183.477 9        49.500    21275041.305 9  87117866.14849
        53.900    21275041.23449  21275039.047 6  83488051.524 6        40.400
  20848833.156 9 109561476.679 9        50.400    20848837.766 9  85372608.47249
        56.100    20848837.13349
 23  4 10  0 38  0.0000000  0 10G16G13G30G04G20G05G06G11G09G07
  24293658.422 5 127664086.398 5        36.900                    99478494.91945
        19.600    24293662.73045
  24885875.852 5 130776160.399 5        35.400                   101903520.26344
        14.800    24885882.80544
  21730208.297 9 114193097.441 9        49.500    21730216.461 9  88981704.85449
        52.900    21730215.65249  21730213.566 6  85274134.277 6        40.900
  23850488.516 6 125335350.328 6        39.700    23850495.664 7  97664021.75047
        25.100    23850495.41847  23850496.676 2  93594464.18012        31.000
  21405142.789 9 112484879.666 9        48.600                    87650546.05249
        38.800    21405146.74649
  23522318.984 7 123610635.804 7        41.000    23522324.387 6  96320006.19247
        25.600    23522323.57047
  22730612.672 7 119450283.752 7        44.400    22730622.012 8  93078194.72349
        43.800    22730620.87549  22730619.707 5  89199891.170 5        35.600
  21660671.195 8 113827639.260 8        47.500    21660676.664 9  88696921.71749
        38.300    21660676.02049  21660677.777 6  85001197.600 6        38.900
  21286364.445 9 111860722.170 9        49.600    21286371.141 9  87164259.92149
        54.100    21286371.05949  21286368.660 6  83532512.216 6        39.700
  20847802.297 9 109556059.347 9        51.000    20847806.863 9  85368387.17049
        56.200    20847806.28149
 23  4 10  0 38 30.0000000  0 10G16G13G30G04G20G05G06G11G09G07
  24299608.484 5 127695351.733 5        36.900                    99502857.53745
        19.300    24299611.70345
  24866821.250 5 130676026.764 5        35.700                   101825494.20744
        14.800    24866827.63744
  21716049.477 9 114118692.944 9        49.100    21716057.602 9  88923727.35349
        52.600    21716056.86749  21716054.551 6  85218572.528 6        40.100
  23867806.852 6 125426360.617 6        39.900    23867813.859 6  97734938.79346
        22.000    23867813.62946  23867814.676 2  93662426.34612        31.000
  21391906.039 9 112415320.098 9        48.600                    87596343.79349
        39.300    21391910.03149
  23503111.656 7 123509700.548 7        41.500    23503116.832 6  96241355.31947
        27.300    23503115.60247
  22749379.859 7 119548903.800 7        44.900    22749388.980 7  93155041.47249
        43.600    22749387.55949  22749386.758 5  89273535.975 5        35.700
  21666289.898 9 113857164.889 9        48.900    21666295.094 9  88719928.68749
        38.100    21666294.45749  21666296.301 6  85023245.917 6        38.600
  21297742.453 9 111920515.406 9        49.400    21297749.488 9  87210852.03749
        53.700    21297749.22749  21297746.961 6  83577163.003 6        39.900
  20846863.281 9 109551125.735 9        50.500    20846868.063 9  85364542.80949
        55.500    20846867.47749
 23  4 10  0 39  0.0000000  0 10G16G13G30G04G20G05G06G11G09G07
  24305672.180 5 127727219.463 5        36.700                    99527689.57545
        18.300    24305675.76645
  24847779.938 5 130575966.745 5        35.200                   101747525.39144
        14.800    24847786.37144
  21701963.953 9 114044672.458 9        49.500    21701971.957 9  88866049.08649
        52.700    21701971.07049  21701968.949 6  85163297.508 6        40.700
  23885138.938 6 125517441.146 6        39.300    23885145.637 6  97805910.59246
        21.700    23885145.02346  23885146.445 1  93730440.99411        29.900
  21378738.672 9 112346124.013 9        49.500                    87542424.78149
        39.400    21378742.79749
  23483932.031 6 123408913.435 6        40.500    23483938.426 6  96162820.00447
        27.900    23483938.23447
  22768195.547 7 119647781.815 7        43.900    22768204.648 8  93232089.23149
        42.900    22768203.35549  22768202.473 5  89347373.411 5        35.500
  21672020.539 9 113887279.923 9        48.700    21672025.746 9  88743394.93449
        38.400    21672025.17249  21672026.793 6  85045734.391 6        38.600
  21309169.313 9 111980562.588 9        49.500    21309176.023 9  87257642.03949
        53.400    21309175.74649  21309173.961 6  83622003.409 6        40.300
  20846016.219 9 109546675.763 9        49.800    20846021.043 9  85361075.31049
        56.700    20846020.59449
 23  4 10  0 39 30.0000000  0 10G16G13G30G04G20G05G06G11G09G07
  24311850.844 5 127759688.160 5        36.800                    99552989.86545
        17.800    24311853.96945
  24828753.578 5 130475980.816 5        36.100                   101669614.32545
        15.600    24828760.10945
  21687951.539 9 113971037.222 9        50.300    21687959.496 9  88808671.00049
        52.900    21687958.64549  21687956.871 6  85108310.182 6        40.400
  23902484.414 6 125608590.747 6        39.900    23902491.008 6  97876936.26746
        22.500    23902490.28546  23902491.340 1  93798507.21211        29.800
  21365640.406 9 112277293.270 9        49.600                    87488790.45449
        39.500    21365644.83249
  23464781.883 7 123308276.965 7        42.000    23464787.469 6  96084402.00247
        27.500    23464786.46947
  22787059.438 7 119746914.412 7        43.300    22787068.813 8  93309335.35249
        42.900    22787067.60549  22787066.785 5  89421400.899 5        35.800
  21677862.984 9 113917982.745 9        48.000    21677868.402 9  88767319.18849
        37.800    21677867.81349  21677869.242 6  85068661.821 6        39.000
  21320644.266 9 112040862.414 9        49.100    21320650.770 9  87304628.89749
        53.500    21320650.33249  21320648.445 6  83667032.491 6        40.700
  20845261.313 9 109542708.510 9        50.000    20845266.191 9  85357983.95149
        55.600    20845265.60249
 23  4 10  0 40  0.0000000  0 10G16G13G30G04G20G05G06G11G09G07
  24318143.617 6 127792756.978 6        38.100                    99578757.85345
        17.800    24318146.53545
  24809740.641 5 130376069.546 5        35.900                   101591761.45145
        16.300    24809747.03145
  21674012.953 9 113897788.966 9        49.900    21674020.980 9  88751594.46149
        53.000    21674020.23449  21674017.922 6  85053611.847 6        40.600
  23919842.563 6 125699808.819 6        39.200    23919849.996 7  97948015.24247
        25.200    23919849.37947  23919850.449 2  93866624.51312        31.000
  21352612.508 9 112208830.313 9        49.900                    87435442.70249
        39.400    21352616.59049
  23445659.781 6 123207793.096 6        40.700    23445665.465 6  96006102.86047
        27.900    23445664.86747
  22805971.773 7 119846298.731 7        44.100    22805981.457 8  93386777.62649
        43.100    22805979.90649  22805979.047 5  89495616.452 5        35.200
  21683817.211 8 113949272.236 8        47.600    21683822.566 9  88791700.59449
        38.200    21683821.89149  21683823.527 6  85092027.351 6        38.400
  21332166.875 9 112101414.033 9        48.600    21332173.488 9  87351811.96949
        53.500    21332172.90249  21332171.246 6  83712249.584 6        40.100
  20844598.453 9 109539223.892 9        50.300    20844603.238 9  85355268.67149
        55.500    20844602.48049
 23  4 10  0 40 30.0000000  0 10G16G13G30G04G20G05G06G11G09G07
  24324550.969 6 127826425.109 6        38.200                    99604992.78745
        17.400    24324553.82445
  24790743.000 5 130276234.000 5        35.700                   101513967.56545
        17.400    24790749.43445
  21660148.133 9 113824929.369 9        49.800    21660156.285 9  88694820.78449
        52.900    21660155.31349  21660152.871 6  84999203.731 6        40.700
  23937213.914 6 125791094.574 6        38.700    23937221.270 7  98019146.92946
        24.700    23937221.12146  23937222.039 2  93934792.388 2        31.200
  21339654.828 9 112140737.761 9        49.500                    87382383.58449
        39.700    21339658.81349
  23426568.898 7 123107464.155 7        42.200    23426574.383 7  95927924.53948
        30.100    23426574.29748
  22824931.891 7 119945931.861 7        44.500    22824940.707 7  93464413.78949
        43.300    22824939.47349  22824938.531 5  89570017.756 5        35.000
  21689882.625 8 113981147.223 8        47.400    21689888.301 9  88816538.21949
        38.500    21689887.98049  21689889.051 6  85115830.044 6        38.500
  21343736.828 9 112162216.596 9        48.300    21343743.738 9  87399190.56749
        53.300    21343743.50849  21343741.516 6  83757654.086 6        40.400
  20844027.211 9 109536221.797 9        50.200    20844031.750 9  85352929.37749
        56.500    20844031.29749
 23  4 10  0 41  0.0000000  0 10G16G13G30G04G20G05G06G11G09G07
  24331071.219 5 127860691.355 5        37.300                    99631693.74845
        18.600    24331074.98845
  24771758.422 3 130176474.831 3        33.200                   101436233.15945
        15.600    24771765.82445
  21646357.750 9 113752459.872 9        49.800    21646365.879 9  88638351.07649
        53.100    21646364.82449  21646362.805 6  84945086.939 6        40.800
  23954597.953 6 125882447.154 6        39.000    23954604.340 6  98090330.67546
        22.800    23954604.35946  23954605.293 1  94003010.207 1        30.100
  21326768.336 9 112073017.632 9        48.900                    87329614.65249
        39.500    21326772.03149
  23407505.633 6 123007291.999 6        40.800    23407511.777 6  95849868.33747
        28.300    23407511.07447
  22843938.375 7 120045810.704 7        44.500    22843947.234 8  93542241.40049
        43.200    22843946.11349  22843944.840 5  89644602.495 5        35.200
  21696059.477 8 114013606.255 8        47.300    21696065.047 9  88841830.95349
        38.200    21696064.60949  21696065.824 6  85140068.932 6        38.300
  21355354.914 9 112223269.023 9        48.300    21355361.719 9  87446763.86749
        53.300    21355361.50849  21355359.527 6  83803245.141 6        39.900
  20843547.453 9 109533701.295 9        49.400    20843552.152 9  85350965.36049
        56.000    20843551.64549
 23  4 10  0 41 30.0000000  0 10G16G13G30G04G20G05G06G11G09G07
  24337705.531 5 127895554.585 5        37.200                    99658859.93645
        17.800    24337709.09445
  24752790.734 5 130076792.681 5        37.200                   101358558.86945
        16.300    24752796.31345
  21632641.680 9 113680381.906 9        49.900    21632649.844 9  88582186.45149
        53.200    21632648.67649  21632646.828 7  84891262.536 7        41.500
  23971994.180 6 125973865.533 6        39.100    23972000.141 6  98161565.75446
        22.300    23971999.86346  23972000.887 1  94071277.15011        29.200
  21313952.633 9 112005672.103 9        50.000                    87277137.62449
        39.500    21313956.78549
  23388474.297 6 122907279.278 6        40.700    23388479.797 6  95771936.38647
        29.100    23388479.38747
  22862990.930 7 120145932.082 7        43.800    22862999.637 8  93620258.00849
        43.300    22862998.70749  22862997.031 4  89719368.420 4        34.600
  21702347.117 8 114046647.858 8        47.500    21702352.723 9  88867577.64149
        37.800    21702352.11349  21702353.676 6  85164742.838 6        38.300
  21367020.156 9 112284570.212 9        48.400    21367026.840 9  87494531.00849
        53.300    21367026.57449  21367024.711 6  83849021.971 6        39.900
  20843159.180 9 109531661.804 9        49.900    20843164.160 9  85349376.15749
        56.800    20843163.57449
 23  4 10  0 42  0.0000000  0 10G16G13G30G04G20G05G06G11G09G07
  24344452.461 5 127931013.583 5        36.300                    99686490.31045
        16.900    24344456.77045
  24733836.633 5 129977188.396 5        35.000                   101280945.18545
        19.000    24733842.70345
  21619000.469 9 113608697.016 9        50.000    21619008.582 9  88526328.11949
        53.200    21619007.49649  21619005.406 6  84837731.646 6        40.200
  23989403.125 6 126065348.955 6        39.400    23989409.328 6  98232851.50346
        21.500    23989408.94546  23989409.410 1  94139592.63711        28.300
  21301208.703 9 111938703.125 9        48.900                    87224954.01649
        39.400    21301212.85549
  23369472.648 7 122807427.431 7        41.100    23369479.203 7  95694129.78647
        29.400    23369479.05547
  22882088.828 7 120246293.061 7        43.600    22882097.852 7  93698461.31349
        42.800    22882096.51249  22882095.656 5  89794313.277 5        35.300
  21708745.313 8 114080270.677 8        47.100    21708750.922 9  88893777.22849
        38.300    21708750.34849  21708751.871 6  85189850.749 6        38.300
  21378732.422 9 112346119.235 9        48.100    21378739.324 9  87542491.27049
        53.000    21378738.74249  21378737.195 6  83894983.896 6        39.700
  20842862.727 9 109530102.852 9        51.000    20842867.367 9  85348161.39349
        56.100    20842866.93849
 23  4 10  0 42 30.0000000  0 10G16G13G30G04G20G05G06G11G09G07
  24351313.500 5 127967067.698 5        36.900                    99714584.45945
        16.900    24351317.98845
  24714897.219 5 129877662.798 5        37.400                   101203392.80445
        19.300    24714904.15245
  21605434.398 9 113537407.193 9        49.700    21605442.414 9  88470777.63549
        53.400    21605441.35949  21605439.250 6  84784495.749 6        40.900
  24006823.602 6 126156897.193 6        38.500    24006830.762 6  98304187.73846
        22.500    24006829.57846  24006831.305 1  94207956.48311        29.300
  21288537.320 9 111872113.619 9        49.200                    87173066.10249
        39.500    21288541.15649
  23350502.547 7 122707739.068 7        41.800    23350508.922 7  95616450.57647
        28.500    23350508.05947
  22901231.578 7 120346891.009 7        43.700    22901241.160 7  93776849.26449
        42.500    22901239.55949  22901238.449 5  89869435.020 5        35.700
  21715254.078 8 114114473.748 8        47.800    21715259.824 9  88920428.95249
        38.400    21715259.02049  21715260.285 6  85215391.974 6        38.400
  21390492.188 9 112407915.542 9        48.100    21390498.625 9  87590644.22149
        52.900    21390498.07849  21390496.727 6  83941130.478 6        40.200
  20842657.586 9 109529024.774 9        49.200    20842662.199 9  85347321.34449
        55.500    20842661.78549
 23  4 10  0 43  0.0000000  0 10G16G13G30G04G20G05G06G11G09G07
  24358287.180 5 128003715.422 5        35.800                    99743141.08045
        19.600    24358292.29745
  24695973.336 6 129778216.436 6        38.500                   101125902.22245
        19.000    24695979.94545
  21591943.750 9 113466513.600 9        49.900    21591951.797 9  88415535.90049
        53.400    21591951.07849  21591948.930 7  84731555.772 7        41.000
  24024257.273 6 126248508.936 6        38.800    24024264.020 6  98375573.43246
        24.600    24024263.66046  24024265.332 2  94276367.767 2        31.700
  21275938.438 9 111805905.654 9        49.800                    87121475.47749
        39.600    21275942.37549
  23331564.383 7 122608216.594 7        41.700    23331570.000 6  95538900.61147
        29.200    23331569.09447
  22920419.602 7 120447722.533 7        43.100    22920428.773 7  93855419.22949
        42.400    22920427.40249  22920426.496 5  89944731.249 5        35.400
  21721872.602 8 114149255.306 8        46.800    21721878.348 9  88947531.43849
        38.400    21721877.71149  21721879.051 6  85241365.200 6        38.900
  21402298.336 9 112469957.816 9        48.300    21402304.953 9  87638988.84149
        53.000    21402304.55549  21402302.777 6  83987460.749 6        39.900
  20842543.617 9 109528426.298 9        50.000    20842548.457 9  85346855.00949
        56.800    20842547.88749
 23  4 10  0 43 30.0000000  0 10G16G13G30G04G20G05G06G11G09G07
  24365374.500 5 128040955.880 5        37.800                    99772159.56746
        20.400    24365378.44946
  24677063.773 5 129678850.279 5        36.400                   101048474.16845
        18.300    24677070.93445
  21578528.875 9 113396017.806 9        50.000    21578536.930 9  88360604.14649
        53.400    21578536.04349  21578534.254 7  84678912.823 7        41.000
  24041702.672 6 126340183.541 6        39.600    24041709.285 6  98447008.14946
        22.600    24041708.76246  24041710.043 1  94344826.04111        30.500
  21263412.758 9 111740081.395 9        50.300                    87070183.86349
        39.900    21263416.39849
  23312657.477 7 122508861.492 7        41.000    23312663.422 6  95461481.08947
        28.300    23312662.98847
  22939650.922 7 120548784.744 7        43.700    22939660.281 7  93934168.95149
        42.400    22939659.07449  22939657.965 4  90020199.682 4        34.900
  21728601.336 8 114184614.020 8        47.500    21728607.004 9  88975083.67049
        38.400    21728606.39549  21728607.734 6  85267769.412 6        38.100
  21414151.344 9 112532245.207 9        48.200    21414158.086 9  87687524.45849
        53.000    21414157.71949  21414155.645 6  84033974.048 6        39.700
  20842521.000 9 109528307.448 9        50.300    20842525.723 9  85346762.40749
        55.700    20842525.24249
 23  4 10  0 44  0.0000000  0 10G16G13G30G04G20G05G06G11G09G07
  24372573.594 5 128078787.733 5        37.900                    99801638.94145
        19.600    24372577.39545
  24658170.883 6 129579564.676 6        38.200                   100971108.72445
        17.400    24658176.55945
  21565189.992 9 113325921.216 9        51.100    21565197.809 9  88305983.45249
        53.700    21565196.90649  21565194.949 7  84626568.038 7        41.300
  24059159.633 6 126431920.115 6        39.200    24059165.094 6  98518491.14846
        21.800    24059164.69146  24059166.816 1  94413330.56011        29.000
  21250959.883 9 111674642.910 9        50.300                    87019192.84549
        40.100    21250963.62549
  23293783.383 7 122409676.105 7        41.600    23293789.188 6  95384193.80947
        29.100    23293787.91847
  22958926.000 7 120650074.506 7        43.700    22958935.219 7  94013095.98049
        43.200    22958933.92649  22958932.859 5  90095838.114 5        35.400
  21735439.563 8 114220548.292 8        47.600    21735445.133 9  89003084.37849
        38.700    21735444.49249  21735445.895 6  85294603.401 6        38.500
  21426050.492 9 112594776.619 9        48.000    21426057.258 9  87736250.21749
        53.000    21426057.02749  21426054.754 6  84080669.547 6        39.400
  20842589.570 9 109528667.384 9        50.200    20842594.180 9  85347042.87949
        56.200    20842593.75849
 23  4 10  0 44 30.0000000  0 10G16G13G30G04G20G05G06G11G09G07
  24379884.922 5 128117209.698 5        37.700                    99831578.12845
        19.900    24379889.09845
  24639292.188 5 129480360.697 5        35.700                   100893806.95845
        17.400    24639298.68845
  21551927.227 9 113256225.289 9        50.400    21551935.254 9  88251674.95749
        53.500    21551934.08249  21551932.059 7  84574522.397 7        41.100
  24076628.258 6 126523717.878 6        40.100    24076634.316 6  98590021.85146
        21.800    24076633.32846  24076634.629 1  94481880.85711        29.000
  21238581.523 9 111609592.702 9        49.400                    86968504.38149
        39.700    21238584.95349
  23274941.820 7 122310662.683 7        41.500    23274947.125 6  95307040.50247
        29.100    23274946.00447
  22978243.695 7 120751588.723 7        42.900    22978252.883 8  94092197.91249
        42.400    22978251.89849  22978250.332 4  90171644.129 4        34.800
  21742386.969 9 114257056.645 9        48.500    21742392.219 9  89031532.42449
        38.700    21742391.74649  21742393.184 6  85321866.118 6        38.300
  21437996.133 9 112657551.139 9        48.300    21438002.855 9  87785165.41749
        52.700    21438002.55149  21438000.406 6  84127546.632 6        39.600
  20842749.086 9 109529505.633 9        49.700    20842753.645 9  85347696.06449
        55.800    20842753.26249
 23  4 10  0 45  0.0000000  0 10G16G13G30G04G20G05G06G11G09G07
  24387308.859 5 128156220.547 5        37.000                    99861976.12945
        19.900    24387312.21945
  24620430.703 6 129381239.11016        38.400                   100816569.40855
        18.600    24620437.43845
  21538741.031 9 113186931.632 9        51.500    21538749.000 9  88197679.92749
        53.700    21538748.09449  21538746.082 6  84522777.152 6        40.800
  24094107.617 6 126615576.193 6        39.000    24094115.391 7  98661599.67246
        22.900    24094114.43046  24094115.449 1  94550476.26811        29.900
  21226276.688 9 111544932.851 9        50.000                    86918120.08649
        40.000    21226280.69949
  23256133.758 7 122211823.600 7        43.000    23256138.996 7  95230023.07848
        30.400    23256138.53548
  22997603.289 7 120853324.587 7        43.500    22997612.547 7  94171472.54149
        42.300    22997611.41049  22997610.320 4  90247615.623 4        34.700
  21749443.023 8 114294137.654 8        47.900    21749448.598 9  89060426.69649
        38.000    21749448.31349  21749449.438 6  85349556.472 6        39.100
  21449987.938 9 112720567.900 9        48.500    21449994.375 9  87834269.37549
        52.600    21449994.15649  21449992.141 6  84174604.570 6        39.900
  20842999.453 9 109530821.520 9        50.800    20843004.180 9  85348721.43849
        55.900    20843003.66849
 23  4 10  0 45 30.0000000  0 10G16G13G30G04G20G05G06G11G09G07
  24394844.266 5 128195819.087 5        36.500                    99892832.12645
        18.300    24394847.63745
  24601584.359 5 129282200.582 5        37.800                   100739396.57345
        19.900    24601591.69545
  21525631.945 9 113118041.716 9        51.300    21525639.766 9  88143999.49349
        54.000    21525638.84049  21525636.648 7  84471333.408 7        41.100
  24111599.125 6 126707494.259 6        38.400    24111606.789 6  98733224.07846
        22.800    24111606.44946  24111608.074 1  94619116.270 1        30.800
  21214047.211 9 111480665.619 9        49.800                    86868041.73749
        40.000    21214051.10549
  23237358.531 7 122113160.868 7        43.800    23237363.703 7  95153143.02948
        30.900    23237363.28148
  23017004.539 7 120955279.037 7        42.100    23017013.797 7  94250917.49649
        42.200    23017012.69549  23017011.652 5  90323750.382 5        35.000
  21756607.891 9 114331789.823 9        49.100    21756613.527 9  89089766.03549
        38.300    21756613.20749  21756614.488 6  85377673.326 6        38.100
  21462025.289 9 112783825.976 9        48.200    21462032.145 9  87883561.36449
        52.300    21462031.46549  21462029.910 6  84221842.733 6        39.400
  20843340.625 9 109532614.789 9        49.600    20843345.375 9  85350118.80749
        55.800    20843344.80149
 23  4 10  0 46  0.0000000  0 10G16G13G30G04G20G05G06G11G09G07
  24402491.117 5 128236004.106 5        36.800                    99924145.18345
        18.300    24402495.06345
  24582753.500 5 129183245.782 5        37.000                   100662289.03645
        16.900    24582760.34445
  21512599.594 9 113049556.974 9        49.800    21512607.527 9  88090634.78149
        54.100    21512606.64549  21512604.375 7  84420192.227 7        41.300
  24129101.633 6 126799471.287 6        38.400    24129109.039 6  98804894.46946
        22.500    24129108.66446  24129110.805 1  94687800.361 1        30.700
  21201892.594 9 111416793.442 9        49.300                    86818271.21049
        40.000    21201896.59449
  23218617.391 7 122014676.544 7        42.500    23218623.742 7  95076402.04648
        31.100    23218623.03948
  23036446.602 7 121057449.017 7        42.600    23036456.336 7  94330530.40449
        41.100    23036454.93049  23036453.988 4  90400046.080 4        34.800
  21763881.703 9 114370011.588 9        48.200    21763887.133 8  89119549.20249
        38.600    21763886.34449  21763887.852 6  85406215.528 6        38.300
  21474108.664 9 112847324.428 9        48.200    21474115.594 9  87933040.65549
        52.300    21474114.98049  21474113.148 6  84269260.350 6        39.700
  20843772.625 9 109534884.490 9        50.600    20843777.211 9  85351887.41149
        55.800    20843776.80949
 23  4 10  0 46 30.0000000  0 10G16G13G30G04G20G05G06G11G09G07
  24410249.102 5 128276774.328 5        37.400                    99955914.18045
        16.300    24410253.03545
  24563939.570 5 129084375.493 5        37.100                   100585247.28545
        16.900    24563945.63345
  21499644.695 9 112981478.798 9        50.800    21499652.488 9  88037586.87349
        54.100    21499651.69149  21499649.770 7  84369354.662 7        41.300
  24146615.789 6 126891506.527 6        38.500    24146622.059 5  98876610.18246
        21.500    24146621.45346  24146623.191 1  94756527.85011        29.800
  21189813.820 9 111353318.101 9        49.300                    86768809.92149
        40.200    21189817.60949
  23199910.313 7 121916373.413 7        43.100    23199916.383 7  94999802.23447
        29.900    23199916.42247
  23055929.539 7 121159831.472 7        42.400    23055938.926 7  94410308.89249
        41.600    23055937.86349  23055937.117 5  90476500.417 5        35.000
  21771262.883 9 114408801.364 9        49.000    21771268.637 9  89149774.97849
        38.400    21771267.96549  21771269.070 5  85435181.887 5        37.900
  21486237.773 9 112911062.224 9        48.800    21486244.527 9  87982706.44949
        52.500    21486244.25449  21486242.145 6  84316856.757 6        39.900
  20844295.328 9 109537630.353 9        51.600    20844299.910 9  85354027.06049
        56.500    20844299.20749
 23  4 10  0 47  0.0000000  0 10G16G13G30G04G20G05G06G11G09G07
  24418118.852 5 128318128.425 5        37.400                    99988138.15445
        15.600    24418121.98445
  24545140.641 5 128985590.381 5        37.300                   100508271.91545
        16.300    24545146.18845
  21486767.469 9 112913808.732 9        51.900    21486775.371 9  87984856.97549
        54.100    21486774.37949  21486772.504 6  84318821.846 6        40.800
  24164140.633 6 126983599.326 6        38.700    24164147.234 6  98948370.76446
        21.700    24164146.60246
  21177810.781 9 111290242.197 9        49.300                    86719659.87449
        40.200    21177814.56649
  23181239.031 7 121818253.389 7        42.600    23181244.633 7  94923345.09948
        30.400    23181244.10248
  23075452.273 7 121262423.499 7        42.200    23075461.617 7  94490250.67149
        41.400    23075460.24649  23075459.953 5  90553111.300 5        35.200
  21778752.297 9 114448157.597 9        49.100    21778757.746 9  89180442.15949
        38.100    21778757.19549  21778758.480 6  85464571.284 6        38.300
  21498411.859 9 112975038.596 9        49.400    21498418.789 9  88032558.15849
        52.500    21498418.49649  21498416.258 6  84364631.310 6        39.800
  20844908.227 9 109540851.707 9        50.300    20844912.840 9  85356537.21649
        56.200    20844912.39849
 23  4 10  0 47 30.0000000  0 10G16G13G30G04G20G05G06G11G09G07
  24426098.836 5 128360064.581 5        36.700                   100020815.73845
        17.800    24426102.12145
  24526358.227 4 128886891.144 4        34.900                   100431363.37345
        16.900    24526364.21145
  21473967.938 9 112846547.892 9        49.600    21473976.016 9  87932445.95049
        54.100    21473975.03949  21473973.000 7  84268594.640 7        41.400
  24181675.766 6 127075748.628 6        39.300    24181683.445 6  99020175.33046
        23.000    24181682.58646
  21165884.086 9 111227567.710 9        48.800                    86670822.61349
        40.100    21165888.04749
  23162603.063 7 121720318.662 7        42.600    23162609.035 7  94847032.37948
        30.500    23162608.52048
  23095014.352 7 121365221.698 7        42.700    23095023.504 7  94570353.11849
        42.100    23095022.42649  23095021.617 5  90629876.107 5        35.400
  21786348.977 9 114488078.391 9        49.300    21786354.391 8  89211549.25849
        38.100    21786353.75849  21786354.980 5  85494382.226 5        37.900
  21510631.563 9 113039252.261 9        49.300    21510638.297 9  88082594.77949
        52.300    21510637.75049  21510635.715 6  84412583.074 6        39.200
  20845611.398 9 109544546.927 9        50.700    20845615.934 9  85359416.62249
        56.200    20845615.43449
 23  4 10  0 48  0.0000000  0 10G16G13G30G04G20G05G06G11G09G07
  24434189.203 5 128402581.915 5        37.200                   100053946.08545
        17.400    24434193.41045
  24507593.875 6 128788278.912 6        38.400                   100354522.79346
        22.300    24507600.95746
  21461246.945 9 112779698.138 9        50.100    21461254.965 9  87880355.26249
        54.200    21461254.02349  21461251.820 7  84218674.386 7        41.000
  24199222.188 5 127167954.172 5        37.800    24199229.891 6  99092023.72946
        22.900    24199229.66046
  21154034.719 9 111165297.245 9        49.100                    86622300.18349
        40.200    21154038.41049
  23144002.102 7 121622571.543 7        42.700    23144007.441 7  94770865.81447
        29.500    23144007.02747
  23114614.914 7 121468223.604 7        41.600    23114624.375 7  94650614.27749
        41.500    23114623.09049  23114622.227 5  90706793.046 5        35.300
  21794053.211 9 114528562.583 9        48.700    21794058.148 9  89243095.35749
        38.500    21794057.84849  21794058.961 5  85524613.884 5        37.800
  21522895.977 9 113103702.776 9        49.400    21522902.938 9  88132815.95049
        51.900    21522902.13349  21522900.367 6  84460711.692 6        39.600
  20846404.828 9 109548717.308 9        51.300    20846409.645 9  85362666.27249
        56.300    20846408.95749
 23  4 10  0 48 30.0000000  0 10G16G13G30G04G20G05G06G11G09G07
  24442390.430 5 128445678.841 5        36.900                   100087528.10245
        16.900    24442394.20345
  24488844.547 4 128689754.120 4        34.800                   100277750.29245
        19.600    24488853.02345
  21448604.016 9 112713260.538 9        50.200    21448612.266 9  87828585.72249
        54.400    21448611.45749  21448609.289 7  84169061.926 7        41.100
  24216778.211 5 127260214.849 5        36.500    24216786.559 7  99163915.09146
        22.000    24216786.68846
  21142262.219 9 111103432.641 9        49.800                    86574094.01349
        40.400    21142266.14149
  23125437.063 7 121525014.641 7        42.600    23125443.141 7  94694847.47348
        30.200    23125442.65648
  23134253.398 7 121571425.806 7        41.800    23134263.086 7  94731031.51949
        41.100    23134261.70749  23134261.332 4  90783859.574 4        34.800
  21801863.383 9 114569608.163 9        48.800    21801869.297 9  89275078.89749
        38.100    21801868.76249  21801869.789 6  85555264.797 6        38.500
  21535205.172 9 113168388.897 9        49.500    21535212.266 9  88183220.70249
        51.900    21535211.50449  21535210.070 6  84509016.228 6        39.900
  20847288.742 9 109553361.191 9        51.200    20847293.160 9  85366284.89349
        56.200    20847292.59849
 23  4 10  0 49  0.0000000  0 10G16G13G30G04G20G05G06G11G09G07
  24450701.273 5 128489354.378 5        37.200                   100121560.94945
        18.300    24450705.55945
  24470112.578 5 128591317.682 5        35.800                   100201046.68745
        16.300    24470120.00045
  21436040.320 9 112647236.703 9        50.800    21436048.379 9  87777138.60449
        54.500    21436047.41449  21436045.340 6  84119758.432 6        40.900
  24234345.445 5 127352530.168 5        37.000    24234352.676 6  99235849.09846
        21.300    24234351.85246
  21130567.367 9 111041976.354 9        49.500                    86526206.00449
        40.800    21130571.26649
  23106909.859 7 121427649.448 7        43.800    23106915.328 7  94618978.53348
        31.800    23106914.76248
  23153929.711 7 121674825.527 7        42.000    23153939.563 7  94811602.65549
        40.500    23153937.94949  23153937.105 4  90861073.571 4        34.800
  21809780.773 9 114611213.681 9        49.100    21809786.480 9  89307498.76849
        38.400    21809786.10249  21809787.141 6  85586333.832 6        38.300
  21547559.586 9 113233309.883 9        48.600    21547566.371 9  88233808.46549
        52.100    21547565.90249  21547564.484 6  84557496.155 6        39.500
  20848262.250 9 109558478.115 9        51.200    20848266.953 9  85370272.11649
        55.600    20848266.35549
 23  4 10  0 49 30.0000000  0 10G16G13G30G04G20G05G06G11G09G07
  24459122.766 5 128533606.682 5        36.600                   100156043.28045
        19.000    24459126.63745
  24451398.875 6 128492970.526 6        39.400                   100124412.50245
        19.000    24451404.24645
  21423555.352 9 112581628.169 9        50.800    21423563.430 9  87726015.10049
        54.500    21423562.36749  21423560.359 7  84070765.062 7        41.200
  24251923.172 6 127444899.594 6        38.200    24251929.613 6  99307825.23246
        21.500    24251928.80146
  21118951.000 9 110980930.839 9        50.300                    86478638.07749
        40.700    21118954.59049
  23088419.047 7 121330479.146 7        44.000    23088424.230 7  94543261.43948
        30.700    23088423.05548
  23173643.273 7 121778419.899 7        41.700    23173652.918 7  94892325.48549
        41.100    23173651.56349  23173650.820 4  90938432.924 4        34.500
  21817804.141 9 114653377.617 9        48.700    21817809.898 9  89340353.76849
        38.400    21817809.41849  21817810.637 5  85617819.855 5        37.600
  21559958.125 9 113298465.014 9        48.800    21559964.867 9  88284578.67849
        51.900    21559964.52349  21559962.863 6  84606150.946 6        39.400
  20849325.797 9 109564067.585 9        51.100    20849330.652 9  85374627.55249
        56.100    20849330.03949
 23  4 10  0 50  0.0000000  0 10G16G13G30G04G20G05G06G11G09G07
  24467653.039 5 128578433.994 5        37.700                   100190973.70945
        18.300    24467657.32045
  24432700.758 5 128394712.775 5        35.700                   100047848.02745
        19.300    24432707.43045
  21411149.523 9 112516435.595 9        50.300    21411157.707 9  87675215.71049
        54.200    21411156.52349  21411154.703 7  84022082.324 7        41.100
  24269510.836 6 127537321.611 6        38.700    24269517.902 6  99379842.36146
        23.500    24269517.54746
  21107412.930 9 110920297.565 9        49.300                    86431391.38249
        40.800    21107416.54349
  23069965.125 7 121233504.639 7        43.000    23069970.875 7  94467696.89448
        31.500    23069969.99248
  23193393.266 7 121882205.086 7        41.500    23193402.500 7  94973196.98449
        40.400    23193401.25449  23193400.273 4  91015934.811 4        34.100
  21825933.523 9 114696097.526 9        49.100    21825939.254 9  89373641.98849
        37.600    21825938.80549  21825939.867 6  85649721.082 6        38.300
  21572400.742 9 113363852.668 9        48.500    21572407.863 9  88335530.08049
        51.900    21572407.53149  21572405.469 6  84654979.378 6        39.700
  20850479.375 9 109570128.041 9        50.700    20850483.883 9  85379349.99349
        56.100    20850483.20749
 23  4 10  0 50 30.0000000  0 10G16G13G30G04G20G05G06G11G09G07
  24476293.023 6 128623835.156 6        38.300                   100226351.15945
        19.300    24476296.70345
  24414018.734 4 128296544.876 4        34.800                    99971353.74945
        17.800    24414026.94145
  21398823.547 9 112451660.740 9        51.100    21398831.430 9  87624741.81849
        54.500    21398830.41049  21398828.477 7  83973711.514 7        41.200
  24287107.898 5 127629796.112 5        37.000    24287115.563 7  99451900.31546
        22.600    24287115.21146
  21095953.547 9 110860079.134 9        50.000                    86384467.94149
        40.700    21095957.32449
  23051549.453 7 121136728.851 7        43.500    23051555.371 7  94392287.19948
        31.800    23051554.16448
  23213178.734 7 121986178.658 7        42.600    23213188.141 7  95054215.29949
        40.200    23213186.87549  23213185.898 4  91093577.345 4        34.600
  21834168.398 9 114739372.092 9        49.100    21834174.340 8  89407362.40549
        38.000    21834173.65649  21834174.996 6  85682036.473 6        38.700
  21584887.906 9 113429472.334 9        48.400    21584894.926 9  88386662.27349
        51.900    21584894.42649  21584892.605 6  84703981.054 6        39.100
  20851722.078 9 109576659.556 9        50.200    20851726.699 9  85384439.49949
        56.400    20851726.04749
 23  4 10  0 51  0.0000000  0 10G16G13G30G04G20G05G06G11G09G07
  24485041.555 6 128669808.877 6        38.900                   100262174.85146
        20.100    24485046.05146
  24395356.031 6 128198468.871 6        38.400                    99894930.89645
        17.400    24395362.23045
  21386576.797 9 112387305.239 9        50.700    21386585.074 9  87574594.69649
        54.800    21386584.07449  21386581.789 7  83925653.874 7        41.000
  24304714.891 5 127722322.507 5        37.400    24304722.648 6  99523998.74346
        22.200    24304721.84846
  21084573.711 9 110800278.315 9        50.200                    86337869.91549
        40.500    21084577.57449
  23033171.555 7 121040154.223 7        42.900    23033177.332 7  94317034.29648
        31.500    23033176.36748
  23232999.273 7 122090337.803 7        41.700    23233009.055 7  95135378.22149
        40.300    23233007.87149  23233007.172 5  91171358.424 5        35.100
  21842508.688 9 114783199.797 9        49.100    21842514.316 9  89441513.84149
        38.300    21842513.83649  21842515.301 6  85714764.944 6        38.000
  21597419.016 8 113495323.393 8        47.500    21597425.750 9  88437974.77149
        51.400    21597425.23849  21597423.633 6  84753155.536 6        39.300
  20853054.336 9 109583661.080 9        50.300    20853059.016 9  85389895.23349
        55.700    20853058.41849
 23  4 10  0 51 30.0000000  0 10G16G13G30G04G20G05G06G11G09G07
  24493897.836 5 128716353.417 5        37.600                   100298443.28845
        18.300    24493902.22345
  24376710.383 6 128100484.683 6        38.600                    99818579.54745
        19.300    24376717.18045
  21374410.367 9 112323369.922 9        50.000    21374418.680 9  87524774.99649
        54.700    21374417.48849  21374415.438 7  83877909.993 7        41.300
  24322332.344 6 127814899.639 6        38.300    24322338.621 5  99596136.72746
        21.300    24322337.71946
  21073273.734 9 110740896.352 9        49.200                    86291598.25949
        40.800    21073277.65249
  23014832.656 7 120943783.048 7        43.600    23014838.688 7  94241939.91648
        31.800    23014838.05948
  23252854.875 7 122194679.011 7        42.400    23252864.563 7  95216682.98749
        39.800    23252863.12949  23252862.152 4  91249275.487 4        34.600
  21850953.547 9 114827578.432 9        48.300    21850959.348 9  89476094.57349
        38.100    21850958.82449  21850960.184 6  85747904.794 6        38.300
  21609994.070 9 113561404.470 9        48.100    21610000.602 9  88489466.52249
        51.300    21610000.13349  21609998.723 6  84802501.789 6        39.400
  20854475.836 9 109591132.112 9        49.900    20854480.773 9  85395716.82549
        56.000    20854480.23849
 23  4 10  0 52  0.0000000  0 10G16G13G30G04G20G05G06G11G09G07
  24502864.148 5 128763466.852 5        37.200                   100335155.03745
        17.800    24502867.66045
  24358082.281 6 128002592.982 6        38.200                    99742300.45645
        19.000    24358089.09845
  21362323.961 9 112259856.194 9        50.600    21362332.141 9  87475283.79549
        54.700    21362331.20749  21362329.090 7  83830480.923 7        41.200
  24339958.344 5 127907526.906 5        37.700    24339964.762 5  99668313.81545
        19.900    24339963.86745
  21062054.102 9 110681935.630 9        49.700                    86245654.85849
        41.300    21062057.75449
  22996532.992 7 120847617.241 7        44.400    22996538.605 7  94167005.54848
        31.900    22996537.93848
  23272744.648 7 122299199.351 7        42.200    23272754.211 7  95298127.35449
        40.400    23272753.09049  23272752.090 5  91327326.329 5        35.000
  21859502.930 9 114872506.226 9        48.400    21859508.988 9  89511103.22349
        38.300    21859508.53549  21859509.434 6  85781454.758 6        38.300
  21622612.016 8 113627714.727 8        47.200    21622619.000 9  88541136.83649
        51.500    21622618.71149  21622617.109 6  84852019.176 6        39.200
  20855986.852 9 109599071.581 9        50.100    20855991.520 9  85401903.42649
        55.700    20855990.99249
 23  4 10  0 52 30.0000000  0 10G16G13G30G04G20G05G06G11G09G07
  24511936.461 4 128811148.196 4        34.900                   100372309.33244
        14.800    24511941.03944
  24339471.930 5 127904794.701 5        37.500                    99666094.03145
        18.600    24339478.55945
  21350318.242 9 112196765.598 9        50.500    21350326.500 9  87426122.31649
        54.800    21350325.57849  21350323.289 7  83783367.846 7        41.300
  24357593.703 5 128000203.835 5        37.900    24357601.504 6  99740529.57845
        19.900    24357600.63345
  21050914.844 9 110623398.776 9        49.600                    86200041.72949
        41.100    21050918.58649
  22978273.031 7 120751660.150 7        44.200    22978278.762 7  94092233.82748
        33.000    22978278.80548
  23292667.383 7 122403896.078 7        41.400    23292677.188 7  95379709.15749
        39.600    23292676.07449  23292675.043 4  91405508.860 4        34.600
  21868156.938 8 114917981.633 8        47.800    21868162.707 9  89546538.58249
        37.700    21868162.18049  21868163.148 6  85815413.622 6        38.000
  21635274.336 8 113694253.519 8        47.000    21635281.191 9  88592985.22349
        51.400    21635280.87149  21635278.988 6  84901707.200 6        39.500
  20857586.695 9 109607479.183 9        49.700    20857591.469 9  85408454.81049
        56.100    20857590.89849
 23  4 10  0 53  0.0000000  0 10G16G13G30G04G20G05G06G11G09G07
  24521117.469 5 128859395.424 5        35.000                   100409904.56044
        14.800    24521121.36344
  24320879.484 6 127807090.676 6        38.300                    99589961.06645
        17.400    24320885.17245
  21338393.313 9 112134099.263 9        51.000    21338401.262 9  87377291.42249
        55.100    21338400.74649  21338398.332 7  83736571.573 7        41.600
  24375239.195 5 128092929.639 5        37.900    24375247.605 7  99812783.36246
        22.900    24375246.81646
  21039856.602 9 110565287.693 9        50.200                    86154760.36949
        41.100    21039860.34849
  22960052.859 7 120655912.390 7        44.500    22960058.125 7  94017625.22348
        32.700    22960057.99648
  23312623.820 7 122508765.929 7        41.200    23312633.711 7  95461425.85549
        39.800    23312632.00449  23312630.809 3  91483820.735 3        33.400
  21876914.453 9 114964002.591 9        48.100    21876920.082 8  89582399.04649
        38.000    21876919.53949  21876920.805 6  85849779.911 6        38.300
  21647979.242 8 113761019.752 8        47.300    21647986.266 9  88645010.83949
        51.200    21647985.77349  21647984.008 6  84951565.082 6        39.400
  20859275.633 9 109616354.069 9        50.700    20859280.324 9  85415370.31149
        56.100    20859279.75849
 23  4 10  0 53 30.0000000  0 10G16G13G30G04G20G05G06G11G09G07
  24530406.242 5 128908207.068 5        35.700                   100447939.64545
        16.900    24530409.90645
  24302304.789 5 127709481.525 5        37.900                    99513902.03545
        19.600    24302311.99245
  21326549.375 9 112071858.392 9        50.800    21326557.344 9  87328792.07549
        55.100    21326556.50449  21326554.309 7  83690093.066 7        41.400
  24392893.945 6 128185703.518 6        38.300    24392901.570 6  99885074.64546
        22.500    24392900.88346
  21028879.852 9 110507604.277 9        49.600                    86109812.26449
        41.100    21028883.56649
  22941872.914 7 120560377.068 7        43.400    22941878.508 7  93943182.13948
        31.600    22941877.85248
  23332612.336 6 122613805.889 6        40.500    23332622.086 7  95543275.09649
        40.000    23332620.69949  23332619.352 3  91562259.579 3        33.800
  21885775.477 9 115010567.218 9        48.900    21885781.129 9  89618683.14349
        38.200    21885780.76649  21885781.891 6  85884552.133 6        38.300
  21660727.742 8 113828012.540 8        46.800    21660734.453 9  88697213.00049
        50.900    21660733.71949  21660732.266 6  85001592.136 6        39.000
  20861053.273 9 109625695.193 9        50.000    20861057.871 9  85422649.12549
        56.100    20861057.25449
 23  4 10  0 54  0.0000000  0 10G16G13G30G04G20G05G06G11G09G07
  24539802.125 5 128957581.264 5        37.500                   100486413.06245
        17.800    24539806.64145
  24283749.656 6 127611967.654 6        39.200                    99437917.31046
        20.100    24283754.70746
  21314786.375 9 112010044.104 9        51.000    21314794.477 9  87280625.10849
        55.000    21314793.43849  21314791.375 6  83643933.041 6        40.900
  24410557.594 6 128278524.563 6        39.100    24410563.945 6  99957402.68446
        21.300    24410563.93046
  21017984.594 9 110450350.705 9        50.000                    86065199.10149
        41.100    21017988.47349
  22923734.125 7 120465056.881 7        44.100    22923739.828 7  93868906.70848
        32.100    22923739.33248
  23352632.461 6 122719012.729 6        40.900    23352641.914 7  95625254.38949
        39.900    23352640.86349  23352640.145 4  91640823.023 4        34.100
  21894739.602 8 115057673.436 8        47.600    21894745.172 9  89655389.26549
        38.300    21894744.64549  21894745.809 6  85919728.840 6        38.500
  21673518.875 8 113895230.765 8        47.200    21673525.832 9  88749590.82349
        50.900    21673524.98449  21673523.676 6  85051787.558 6        38.800
  20862919.227 9 109635501.329 9        51.100    20862923.867 9  85430290.27449
        56.400    20862923.21949
 23  4 10  0 54 30.0000000  0 10G16G13G30G04G20G05G06G11G09G07
  24549305.438 6 129007516.602 6        38.800                   100525323.68445
        17.400    24549309.61745
  24265210.352 5 127514549.971 5        36.900                    99362007.35645
        16.900    24265215.14145
  21303105.016 9 111948657.643 9        50.900    21303112.992 9  87232791.52249
        55.000    21303112.05949  21303109.809 7  83598092.540 7        41.400
  24428229.211 5 128371392.196 5        37.900    24428235.672 6 100029767.02846
        20.900    24428235.63346
  21007171.875 9 110393529.080 9        49.900                    86020922.51649
        41.200    21007175.73849
  22905636.328 7 120369953.513 7        43.400    22905642.211 7  93794800.21748
        32.700    22905641.19948
  23372684.023 7 122824383.443 7        41.500    23372693.758 7  95707361.37249
        40.000    23372692.26249  23372691.414 3  91719508.920 3        33.600
  21903806.094 9 115105319.369 9        48.600    21903811.703 9  89692515.94749
        37.700    21903811.49249  21903812.449 6  85955308.589 6        38.200
  21686352.859 8 113962673.571 8        47.200    21686359.777 9  88802143.65049
        51.000    21686359.23849  21686357.754 6  85102150.676 6        39.000
  20864873.750 9 109645772.387 9        50.300    20864878.449 9  85438293.70649
        55.600    20864877.83249
 23  4 10  0 55  0.0000000  0 10G16G13G30G04G20G05G06G11G09G07
  24558913.430 5 129058011.102 5        37.900                   100564670.04645
        18.600    24558918.13345
  24246691.492 6 127417229.206 6        39.400                    99286173.07345
        16.300    24246695.87545
  21291505.234 9 111887700.385 9        50.900    21291513.109 9  87185292.38849
        55.500    21291512.31649  21291509.918 7  83552572.519 7        41.700
  24445909.719 5 128464305.786 5        36.200    24445916.836 6 100102167.20246
        20.400    24445916.52746
  20996441.797 9 110337141.760 9        49.400                    85976984.36149
        41.400    20996445.60549
  22887581.000 7 120275069.996 7        43.900    22887586.441 7  93720865.05048
        32.600    22887586.03148
  23392765.844 6 122929915.210 6        40.900    23392775.512 7  95789593.84849
        38.700    23392773.87149  23392773.527 4  91798314.998 4        34.300
  21912975.109 9 115153503.228 9        48.500    21912980.852 8  89730061.78749
        37.900    21912980.60249  21912981.441 5  85991289.966 5        37.800
  21699229.320 8 114030340.199 8        47.200    21699236.348 9  88854870.87149
        51.100    21699236.27749  21699234.031 6  85152680.914 6        39.100
  20866916.391 9 109656507.193 9        50.900    20866921.109 9  85446658.49349
        56.000    20866920.64849
 23  4 10  0 55 30.0000000  0 10G16G13G30G04G20G05G06G11G09G07
  24568628.273 5 129109063.494 5        36.500                   100604451.12445
        18.300    24568632.75045
  24228191.305 6 127320006.445 6        40.900                    99210415.10946
        22.300    24228197.58246
  21279987.461 9 111827173.692 9        51.900    21279995.238 9  87138128.74849
        55.000    21279994.39149  21279992.246 7  83507374.042 7        41.900
  24463600.008 5 128557264.863 5        37.000    24463607.539 6 100174602.80546
        21.800    24463606.68846
  20985794.672 9 110281191.051 9        49.900                    85933386.41649
        41.300    20985798.75449
  22869566.969 7 120180407.984 7        43.600    22869573.012 7  93647102.49848
        33.400    22869572.54748
  23412877.906 6 123035605.097 6        40.800    23412887.707 7  95871949.53749
        37.600    23412886.28149  23412886.059 4  91877239.164 4        34.600
  21922246.219 9 115202223.149 9        48.700    21922252.074 8  89768025.33049
        37.400    21922251.31349  21922252.996 6  86027671.702 6        38.400
  21712148.219 8 114098229.915 8        47.300    21712155.313 9  88907771.93149
        50.900    21712155.12149  21712152.961 6  85203377.776 6        38.700
  20869047.570 9 109667704.843 9        51.900    20869052.027 9  85455383.94849
        55.300    20869051.47749
 23  4 10  0 56  0.0000000  0 10G16G13G30G04G20G05G06G11G09G07
  24578448.109 4 129160671.846 4        34.000                   100644665.37845
        16.300    24578453.93045
  24209706.508 5 127222882.220 5        35.000                    99134734.03445
        17.800    24209715.32045
  21268551.734 9 111767078.805 9        50.200    21268559.496 9  87091301.58849
        55.300    21268558.64149  21268556.563 7  83462498.026 7        41.300
  24481297.039 5 128650268.776 5        36.700    24481305.199 6 100247073.30246
        22.200    24481304.78946
  20975231.219 9 110225679.127 9        48.800                    85890130.38349
        41.400    20975235.00049
  22851596.242 7 120085970.230 7        44.900    22851602.145 7  93573514.68648
        33.000    22851601.32448
  23433020.367 6 123141450.147 6        40.600    23433029.652 7  95954426.12849
        37.900    23433028.36349  23433027.566 3  91956279.220 3        33.800
  21931619.086 9 115251477.257 9        48.500    21931624.879 9  89806405.13649
        38.200    21931624.48049  21931625.508 5  86064452.367 5        37.500
  21725109.508 8 114166341.866 8        47.300    21725116.594 9  88960846.15449
        50.700    21725116.12549  21725114.398 6  85254240.570 6        38.700
  20871266.289 9 109679365.195 9        51.000    20871270.863 9  85464469.94349
        55.400    20871270.34449
 23  4 10  0 56 30.0000000  0 10G16G13G30G04G20G05G06G11G09G07
  24588375.398 5 129212834.953 5        35.400                   100685311.98045
        18.300    24588379.85945
  24191244.695 5 127125857.063 5        37.800                    99059130.12744
        14.800    24191250.71144
  21257198.719 9 111707416.985 9        51.600    21257206.324 9  87044811.87549
        55.200    21257205.30549  21257203.047 7  83417945.375 7        41.500
  24499004.242 5 128743316.912 5        36.800    24499011.629 6 100319578.28546
        21.300    24499011.33246
  20964751.477 9 110170608.241 9        50.200                    85847218.01449
        41.300    20964755.34049
  22833668.375 7 119991759.449 7        44.400    22833674.172 7  93500103.73048
        32.500    22833673.39548
  23453190.508 6 123247447.370 6        40.200    23453200.258 7  96037021.30149
        38.700    23453199.01649  23453198.184 3  92035432.910 3        33.600
  21941092.992 9 115301263.561 9        48.700    21941099.004 9  89845199.64249
        37.900    21941098.59849  21941099.453 6  86101630.437 6        38.200
  21738113.078 8 114234675.192 8        47.700    21738119.809 9  89014092.88949
        50.400    21738119.12149  21738117.578 6  85305268.710 6        38.900
  20873572.930 9 109691486.857 9        51.400    20873577.527 9  85473915.40549
        55.700    20873577.00449
 23  4 10  0 57  0.0000000  0 10G16G13G30G04G20G05G06G11G09G07
  24598407.086 5 129265550.402 5        37.700                   100726388.96345
        18.300    24598411.81645
  24172801.328 6 127028932.256 6        39.400                    98983604.19745
        19.600    24172805.76245
  21245927.734 9 111648189.230 9        51.100    21245935.621 9  86998660.39449
        55.100    21245934.64149  21245932.438 7  83373716.902 7        41.300
  24516718.773 5 128836408.458 5        36.000    24516725.906 6 100392117.09545
        19.300    24516725.71945
  20954356.117 9 110115980.132 9        50.300                    85804650.67049
        41.400    20954360.03949
  22815784.219 7 119897776.831 7        44.700    22815789.508 7  93426870.55748
        33.800    22815788.92648
  23473389.773 6 123353593.575 6        40.400    23473399.609 7  96119732.56249
        38.600    23473398.37949  23473397.008 3  92114697.907 3        33.400
  21950668.031 9 115351579.911 9        48.600    21950673.957 9  89884407.14849
        37.700    21950673.54349  21950674.391 5  86139204.281 5        37.700
  21751158.484 8 114303228.892 8        47.000    21751165.254 9  89067511.34149
        50.300    21751164.40649  21751163.137 6  85356461.351 6        38.600
  20875967.219 9 109704069.221 9        50.800    20875972.020 9  85483719.84549
        55.500    20875971.42649
 23  4 10  0 57 30.0000000  0 11G16G02G13G30G04G20G05G06G11G09G07
  24608543.375 5 129318815.975 5        35.200                   100767894.57745
        17.400    24608547.25045
  25921758.117 2 136219765.14612        31.600                   106145274.08354
        14.800    25921760.48444
  24154375.273 5 126932108.001 5        37.100                    98908156.81546
        21.500    24154382.33646
  21234739.891 9 111589396.503 9        51.000    21234747.711 9  86952847.90349
        55.100    21234746.78549  21234744.480 7  83329813.254 7        41.800
  24534441.602 5 128929542.465 5        36.600    24534449.012 6 100464688.99345
        19.300    24534448.14545
  20944045.359 9 110061796.795 9        49.500                    85762429.89849
        41.600    20944049.47349
  22797943.703 8 119804024.785 8        45.100    22797949.113 7  93353817.04548
        32.400    22797948.23048
  23493616.555 6 123459885.570 6        40.900    23493626.313 7  96202557.41249
        39.000    23493625.17649  23493623.605 3  92194071.662 3        32.700
  21960343.211 8 115402424.053 8        47.800    21960349.102 9  89924025.93249
        37.900    21960348.84849  21960349.656 6  86177172.284 6        38.100
  21764245.445 8 114372001.826 8        47.100    21764252.453 9  89121100.62249
        50.500    21764251.80949  21764250.559 6  85407817.745 6        38.600
  20878449.070 9 109717110.946 9        50.600    20878453.590 9  85493882.21749
        55.800    20878453.09449
 23  4 10  0 58  0.0000000  0 11G16G02G13G30G04G20G05G06G11G09G07
  24618783.453 5 129372630.395 5        37.200                   100809827.94445
        18.300    24618787.31645
  25908147.953 6 136148229.970 6        39.800                   106089532.70346
        24.100    25908151.74646
  24135969.297 5 126835384.858 5        36.900                    98832788.30245
        18.600    24135974.89145
  21223634.992 9 111531040.111 9        51.500    21223642.816 9  86907375.41249
        55.400    21223641.99649  21223639.539 7  83286235.453 7        41.800
  24552173.414 5 129022718.553 5        36.900    24552180.164 6 100537293.69946
        20.400    24552179.73446
  20933819.672 9 110008060.506 9        50.500                    85720557.47249
        41.600    20933823.71149
  22780147.891 8 119710506.517 8        45.100    22780153.152 7  93280945.70548
        33.700    22780152.61348
  23513870.242 6 123566320.507 6        39.400    23513879.840 7  96285493.65549
        39.500    23513878.94149  23513877.445 3  92273552.241 3        33.000
  21970119.047 9 115453794.107 9        48.000    21970124.566 8  89964054.52749
        37.700    21970124.03149  21970125.340 6  86215533.017 6        38.400
  21777374.188 8 114440993.350 8        46.700    21777381.141 9  89174860.22349
        50.200    21777380.53549  21777378.965 6  85459337.351 6        38.600
  20881018.008 9 109730611.267 9        51.000    20881022.645 9  85504401.95249
        55.400    20881022.16049
 23  4 10  0 58 30.0000000  0 11G16G02G13G30G04G20G05G06G11G09G07
  24629128.375 4 129426991.723 4        34.700                   100852187.38645
        17.400    24629131.80545
  25894595.727 5 136077015.638 5        36.600                   106034041.24645
        17.400    25894598.85945
  24117583.156 6 126738763.893 6        38.600                    98757499.25445
        18.600    24117588.62145
  21212613.367 9 111473120.886 9        50.500    21212621.004 9  86862243.57349
        55.000    21212620.09049  21212617.875 7  83242984.122 7        41.900
  24569911.281 5 129115935.671 5        36.200    24569919.148 6 100609930.32646
        21.500    24569918.93046
  20923679.344 9 109954772.890 9        50.200                    85679034.66249
        41.500    20923683.31649
  22762396.719 7 119617223.708 7        44.900    22762401.879 7  93208257.84748
        33.500    22762401.48448
  23534151.227 6 123672895.000 6        40.500    23534160.656 7  96368538.63749
        39.100    23534159.48449  23534158.414 3  92353137.022 3        32.200
  21979993.906 8 115505687.696 8        47.900    21979999.738 9  90004491.06249
        37.800    21979999.25049  21980000.418 5  86254284.691 5        37.900
  21790544.297 8 114510202.207 8        46.800    21790551.250 9  89228789.17949
        50.000    21790550.48449  21790548.836 6  85511019.262 6        39.200
  20883673.977 9 109744569.200 9        50.300    20883678.730 9  85515278.27449
        56.100    20883678.13749
 23  4 10  0 59  0.0000000  0 11G16G02G13G30G04G20G05G06G11G09G07
  24639576.539 5 129481897.984 5        35.600                   100894971.52345
        16.300    24639580.84045
  25881105.406 5 136006125.152 5        37.300                   105978801.74046
        20.600    25881108.89546
  24099215.336 5 126642245.685 5        36.500                    98682290.22845
        16.300    24099220.51245
  21201675.063 9 111415640.371 9        50.400    21201683.008 9  86817453.57749
        55.000    21201681.79349  21201679.816 7  83200060.377 7        41.700
  24587657.953 5 129209193.646 5        36.500    24587665.383 6 100682598.79646
        22.000    24587664.86346
  20913624.820 9 109901936.544 9        49.200                    85637863.49049
        41.600    20913628.75849
  22744690.844 7 119524178.934 7        44.700    22744696.066 7  93135755.46448
        33.700    22744695.82448
  23554457.703 7 123779606.487 7        41.400    23554467.320 7  96451690.37149
        39.000    23554466.20349  23554465.051 3  92432824.098 3        32.600
  21989968.281 9 115558103.098 9        48.300    21989973.793 9  90045334.21349
        37.600    21989973.53149  21989974.617 5  86293426.042 5        37.300
  21803755.555 8 114579627.950 8        46.600    21803762.398 9  89282887.13749
        50.100    21803761.69549  21803759.809 6  85562863.157 6        38.700
  20886417.227 9 109758984.028 9        51.000    20886421.742 9  85526510.61749
        55.900    20886421.14149
 23  4 10  0 59 30.0000000  0 11G16G02G13G30G04G20G05G06G11G09G07
  24650127.383 5 129537347.969 5        35.200                   100938179.28245
        16.300    24650132.50045
  25867677.633 6 135935560.299 6        38.600                   105923816.24446
        20.100    25867681.46546
  24080868.898 5 126545831.242 5        37.900                    98607162.19446
        20.900    24080875.77046
  21190820.258 9 111358599.698 9        51.300    21190828.504 9  86773006.32149
        55.200    21190827.53549  21190825.363 7  83157465.097 7        41.500
  24605411.641 5 129302491.767 5        37.100    24605419.527 6 100755298.55545
        19.900    24605418.39545
  20903656.836 9 109849553.669 9        49.900                    85597045.66849
        41.600    20903660.62549
  22727030.953 8 119431375.144 8        45.000    22727036.395 7  93063440.85549
        34.100    22727035.47749
  23574789.844 6 123886451.989 6        40.200    23574799.273 7  96534946.51949
        37.800    23574798.03949  23574797.301 3  92512611.237 3        32.200
  22000041.438 9 115611038.279 9        48.400    22000047.496 9  90086582.38449
        37.700    22000047.13349  22000047.867 5  86332955.532 5        37.700
  21817007.867 8 114649269.752 8        46.800    21817014.859 9  89337153.45649
        50.000    21817014.11349  21817012.379 6  85614868.374 6        38.300
  20889246.969 9 109773854.806 9        50.700    20889251.668 9  85538098.23849
        56.200    20889250.97349
 23  4 10  1  0  0.0000000  0 11G16G02G13G30G04G20G05G06G11G09G07
  24660782.609 3 129593338.957 3        33.600                   100981808.53445
        17.800    24660786.93845
  25854310.055 3 135865323.325 3        32.900                   105869086.10545
        16.300    25854314.75845
  24062542.578 6 126449521.390 6        40.000                    98532115.66846
        21.500    24062549.42646
  21180050.031 9 111301999.922 9        51.800    21180057.926 9  86728902.61949
        55.200    21180057.06349  21180054.633 7  83115199.054 7        42.000
  24623173.180 5 129395829.392 5        37.100    24623180.414 5 100828029.11945
        19.000    24623180.21145
  20893775.406 9 109797626.390 9        50.600                    85556582.86049
        41.600    20893779.18049
  22709416.727 8 119338814.375 8        45.100    22709422.910 7  92991315.63449
        34.400    22709422.11749
  23595146.297 6 123993428.450 6        39.800    23595156.133 7  96618304.71149
        37.100    23595155.18049  23595154.309 3  92592496.135 3        32.900
  22010213.164 8 115664491.001 8        47.400    22010219.152 9  90128233.83149
        37.600    22010218.87149  22010219.656 5  86372871.495 5        37.800
  21830301.359 8 114719126.682 8        47.200    21830307.984 8  89391587.40949
        49.900    21830307.29349  21830305.805 6  85667034.234 6        38.400
  20892163.445 9 109789180.704 9        51.200    20892167.957 9  85550040.50149
        56.600    20892167.39849
 23  4 10  1  0 30.0000000  0 11G16G02G13G30G04G20G05G06G11G09G07
  24671540.219 4 129649869.153 4        34.800                   101025858.04545
        16.900    24671544.45745
  25841009.016 6 135795415.806 6        38.900                   105814612.83246
        21.800    25841012.93846
  24044234.375 5 126353316.532 5        37.600                    98457150.81345
        16.300    24044240.44545
  21169363.375 9 111245841.881 9        51.500    21169371.340 9  86685143.13349
        55.000    21169370.43049  21169368.219 7  83073262.883 7        42.400
  24640942.297 5 129489205.718 5        35.800    24640949.750 6 100900789.84345
        19.000    24640949.19945
  20883980.938 9 109746156.461 9        49.900                    85516476.42749
        41.900    20883984.82849
  22691849.984 7 119246498.366 7        44.600    22691855.434 7  92919381.12649
        34.900    22691854.96949
  23615528.180 7 124100532.638 7        41.100    23615537.543 7  96701762.42249
        37.900    23615536.41049  23615535.719 3  92672476.398 3        32.100
  22020482.930 8 115718458.980 8        47.800    22020488.785 8  90170286.78149
        37.700    22020488.40249  22020489.395 5  86413172.221 5        37.700
  21843635.375 8 114789197.669 8        46.500    21843642.324 9  89446188.15349
        50.000    21843641.54349  21843639.926 6  85719359.930 6        38.100
  20895166.148 9 109804960.397 9        51.600    20895170.801 9  85562336.37349
        55.900    20895170.16049
 23  4 10  1  1  0.0000000  0 11G16G02G13G30G04G20G05G06G11G09G07
  24682400.656 5 129706937.138 5        36.400                   101070326.57945
        16.900    24682403.94545
  25827767.133 3 135725840.355 3        33.700                   105760398.25945
        16.900    25827772.27045
  24025948.500 6 126257217.317 6        40.400                    98382268.45246
        20.400    24025953.30546
  21158761.125 9 111190126.972 9        52.400    21158769.098 9  86641728.93749
        55.300    21158768.19149  21158765.672 7  83031657.612 7        41.400
  24658719.219 5 129582620.203 5        36.500    24658726.512 6 100973580.29045
        19.600    24658726.15645
  20874273.953 9 109695145.960 9        50.300                    85476727.98849
        41.600    20874277.90249
  22674329.570 7 119154429.763 7        44.800    22674335.117 7  92847639.39549
        34.000    22674334.46949
  23635932.852 6 124207761.791 6        40.400    23635942.824 7  96785317.52949
        36.600    23635941.32049  23635940.504 3  92752550.080 3        32.800
  22030850.523 9 115772940.267 9        48.000    22030856.105 9  90212739.70149
        37.200    22030855.50449  22030856.727 5  86453856.273 5        36.800
  21857010.055 8 114859482.132 8        47.400    21857016.809 9  89500955.23949
        49.700    21857016.52349  21857014.910 6  85771845.047 6        38.600
  20898255.156 9 109821193.208 9        51.300    20898259.789 9  85574985.32249
        55.400    20898259.07449
 23  4 10  1  1 30.0000000  0 11G16G02G13G30G04G20G05G06G11G09G07
  24693361.867 5 129764540.284 5        36.500                   101115212.19145
        18.300    24693365.57845
  25814593.445 6 135656598.504 6        39.400                   105706443.62446
        23.800    25814595.94546
  24007680.492 6 126161224.327 6        38.800                    98307468.76646
        20.900    24007687.43446
  21148243.211 9 111134855.703 9        51.700    21148251.141 9  86598660.43849
        55.400    21148250.34049  21148247.980 7  82990383.611 7        41.800
  24676502.438 5 129676071.907 5        35.900    24676509.770 6 101046399.67346
        20.400    24676509.98846
  20864654.914 9 109644596.501 9        49.900                    85437338.80549
        41.800    20864658.64149
  22656857.102 8 119062611.062 8        45.200    22656862.246 7  92776092.39349
        34.200    22656861.93049
  23656361.148 7 124315112.477 7        41.400    23656371.410 7  96868967.33749
        37.500    23656369.71549  23656369.309 3  92832714.401 3        32.200
  22041314.844 8 115827932.188 8        47.700    22041320.922 8  90255590.53749
        38.300    22041320.40649  22041321.582 5  86494921.652 5        37.500
  21870425.219 8 114929978.694 8        47.500    21870432.137 8  89555887.59749
        49.600    21870431.20349  21870429.488 6  85824488.561 6        38.400
  20901430.188 9 109837877.598 9        51.500    20901434.727 9  85587986.15649
        56.500    20901434.18049
 23  4 10  1  2  0.0000000  0 11G16G02G13G30G04G20G05G06G11G09G07
  24704425.602 5 129822676.959 5        36.600                   101160513.49145
        17.800    24704428.80145
  25801480.359 5 135587692.280 5        37.500                   105652750.55945
        18.300    25801481.67245
  23989434.117 6 126065338.544 6        39.400                    98232752.63346
        20.600    23989440.32046
  21137810.063 9 111080029.599 9        52.000    21137818.180 9  86555938.82649
        55.700    21137817.07049  21137815.074 7  82949442.082 7        41.600
  24694291.992 5 129769560.570 5        36.600    24694299.973 6 101119247.90546
        20.600    24694299.50446
  20855123.758 9 109594510.829 9        50.200                    85398311.01549
        41.700    20855127.70749
  22639432.836 7 118971045.041 7        44.800    22639438.219 7  92704742.28249
        34.400    22639437.58649
  23676812.648 6 124422582.061 6        40.900    23676821.504 7  96952709.78549
        37.200    23676820.39849  23676820.297 3  92912967.570 3        32.400
  22051876.555 8 115883432.976 8        46.900    22051882.098 9  90298837.87749
        37.200    22051881.54749  22051883.309 5  86536367.010 5        37.800
  21883880.555 8 115000686.955 8        47.200    21883887.324 8  89610984.92649
        49.300    21883886.33649  21883884.777 5  85877290.191 5        37.500
  20904690.984 9 109855013.263 9        51.900    20904695.609 9  85601338.63249
        55.400    20904694.93449
 23  4 10  1  2 30.0000000  0 11G16G02G13G30G04G20G05G06G11G09G07
  24715588.984 5 129881345.460 5        37.300                   101206229.23345
        17.400    24715592.73045
  25788432.031 5 135519124.013 5        37.900                   105599320.78146
        22.300    25788435.76246
  23971207.719 6 125969560.662 6        38.400                    98158120.58445
        19.000    23971213.45745
  21127461.969 9 111025649.484 9        52.200    21127470.086 9  86513564.73549
        55.200    21127468.96949  21127466.930 7  82908833.599 7        41.800
  24712089.344 5 129863085.359 5        35.100    24712097.309 6 101192124.28045
        19.600    24712097.04345
  20845681.219 9 109544890.285 9        51.000                    85359645.66349
        41.700    20845685.12549
  22622056.648 7 118879733.625 7        44.100    22622062.109 7  92633590.56549
        34.800    22622061.61349
  23697284.641 7 124530167.416 7        41.300    23697294.832 7  97036542.45049
        37.100    23697293.34849  23697292.766 3  92993307.236 3        32.100
  22062534.172 8 115939440.249 8        47.000    22062540.105 9  90342479.88949
        37.100    22062539.62949  22062540.941 5  86578190.603 5        37.500
  21897375.766 8 115071605.907 8        47.300    21897382.754 9  89666246.43249
        48.900    21897381.88749  21897380.539 5  85930249.107 5        37.700
  20908037.367 9 109872598.784 9        51.400    20908041.949 9  85615041.64049
        55.500    20908041.48849
 23  4 10  1  3  0.0000000  0 11G16G02G13G30G04G20G05G06G11G09G07
  24726854.008 5 129940543.490 5        35.700                   101252357.54245
        16.300    24726858.14145
  25775448.672 5 135450895.562 5        37.900                   105546155.83945
        17.800    25775451.19145
  23953002.164 6 125873891.555 6        38.600                    98083573.29845
        18.300    23953008.24245
  21117199.125 9 110971716.446 9        52.300    21117206.871 9  86471539.01649
        55.500    21117205.88749  21117203.664 7  82868558.959 7        41.700
  24729894.211 4 129956645.816 4        34.600    24729900.586 6 101265028.49945
        18.600    24729900.60245
  20836327.773 9 109495737.464 9        50.500                    85321344.76749
        41.800    20836331.59449
  22604729.484 8 118788679.318 8        45.400    22604734.941 7  92562639.19349
        34.200    22604734.45749
  23717779.070 6 124637865.625 6        40.400    23717788.953 7  97120463.05349
        37.000    23717787.97349  23717787.512 3  93073731.072 3        32.600
  22073288.016 8 115995951.840 8        46.600    22073293.848 8  90386514.87149
        37.100    22073293.15649  22073294.633 5  86620390.791 5        37.700
  21910911.313 8 115142734.713 8        47.000    21910918.137 9  89721671.44949
        49.000    21910917.71949  21910916.184 6  85983364.771 6        38.700
  20911469.227 9 109890633.296 9        51.300    20911473.789 9  85629094.51549
        55.600    20911473.01649
 23  4 10  1  3 30.0000000  0 11G16G02G13G30G04G20G05G06G11G09G07
  24738218.273 3 130000268.740 3        33.500                   101298896.68145
        16.300    24738223.66445
  25762530.172 5 135383008.729 5        37.200                   105493256.98246
        22.300    25762533.25846
  23934818.703 6 125778331.797 6        40.400                    98009111.18546
        20.400    23934824.00046
  21107021.250 9 110918231.418 9        52.500    21107028.879 9  86429862.38049
        55.300    21107028.08649  21107025.637 7  82828618.862 7        41.700
  24747704.633 5 130050241.224 5        36.000    24747712.082 6 101337959.96945
        19.900    24747710.98045
  20827063.531 9 109447054.138 9        50.300                    85283409.71149
        41.700    20827067.35249
  22587452.242 8 118697884.628 8        45.300    22587457.512 7  92491890.12149
        35.400    22587456.87149
  23738294.883 6 124745673.586 6        40.400    23738304.805 7  97204469.15049
        37.600    23738303.62149  23738302.324 2  93154236.926 2        31.700
  22084137.148 8 116052965.410 8        46.300    22084143.133 8  90430941.01049
        36.900    22084142.17649  22084143.996 5  86662965.832 5        36.900
  21924486.586 8 115214072.495 8        47.700    21924493.445 8  89777259.29749
        49.200    21924493.05949  21924491.398 6  86036636.399 6        38.400
  20914986.234 9 109909115.674 9        51.600    20914990.844 9  85643496.37549
        55.500    20914990.30149
 23  4 10  1  4  0.0000000  0 11G16G02G13G30G04G20G05G06G11G09G07
  24749684.516 5 130060520.124 5        35.400                   101345845.74945
        18.300    24749689.42245
  25749677.094 5 135315466.601 5        37.400                   105440626.79645
        18.600    25749681.66845
  23916655.742 6 125682882.887 6        40.800                    97934735.48646
        22.000    23916660.54746
  21096928.758 9 110865196.221 9        51.700    21096936.770 9  86388536.26849
        55.100    21096935.84849  21096933.324 7  82789014.666 7        42.000
  24765521.711 5 130143871.784 5        36.400    24765529.465 6 101410918.78045
        19.600    24765528.62545
  20817889.531 9 109398843.163 9        49.500                    85245842.71849
        42.000    20817893.21949
  22570224.172 8 118607352.406 8        45.800    22570229.492 7  92421345.58049
        35.800    22570229.03949
  23758830.656 6 124853589.136 6        40.500    23758840.199 7  97288559.11749
        36.800    23758838.83649  23758838.219 2  93234823.171 2        31.200
  22095081.875 8 116110479.524 8        46.000    22095087.730 8  90475757.16949
        36.400    22095086.80149  22095088.930 5  86705914.658 5        37.900
  21938101.219 8 115285619.193 8        46.800    21938108.125 8  89833009.95149
        49.000    21938107.84449  21938106.102 5  86090064.126 5        37.600
  20918588.375 9 109928045.641 9        50.900    20918593.023 9  85658247.00949
        55.900    20918592.57449
 23  4 10  1  4 30.0000000  0 12G14G16G02G13G30G04G20G05G06G11G09G07
  25259193.563 3 132737953.09713        32.600    25259203.141 6 103432212.77555
        18.600    25259203.58245
  24761249.898 5 130121294.509 5        37.000                   101393202.35945
        19.300    24761254.33245
  25736890.570 6 135248269.862 6        39.500                   105388265.61546
        21.700    25736894.21146
  23898512.531 6 125587544.203 6        39.500                    97860445.67046
        22.000    23898518.73446
  21086922.063 9 110812610.727 9        51.600    21086929.961 9  86347560.57849
        55.100    21086929.13349  21086926.750 7  82749746.306 7        41.500
  24783345.383 5 130237535.723 5        35.100    24783353.621 6 101483903.63645
        19.600    24783352.32445
  20808805.289 9 109351105.679 9        49.500                    85208644.68549
        42.400    20808809.17249
  22553046.445 8 118517083.898 8        45.000    22553052.078 7  92351006.49549
        35.800    22553051.60249
  23779385.719 6 124961608.235 6        39.200    23779395.734 7  97372729.74349
        37.700    23779395.12149  23779393.477 2  93315486.642 2        31.000
  22106121.031 8 116168490.751 8        46.200    22106126.840 8  90520960.70049
        36.400    22106126.05549  22106127.824 5  86749234.698 5        37.600
  21951755.422 8 115357372.865 8        47.200    21951762.605 8  89888921.87049
        48.800    21951761.67649  21951760.199 6  86143646.371 6        38.100
  20922275.656 9 109947421.317 9        51.800    20922280.191 9  85673344.93649
        55.900    20922279.47749
 23  4 10  1  5  0.0000000  0 12G14G16G02G13G30G04G20G05G06G11G09G07
  25239620.281 4 132635101.05914        34.200    25239630.621 6 103352068.73855
        19.000    25239630.50045
  24772914.172 5 130182589.744 5        35.700                   101440964.81745
        19.000    24772918.53545
  25724168.617 5 135181420.622 5        35.400                   105336175.26245
        19.000    25724172.89145
  23880391.266 6 125492316.838 6        38.600                    97786242.59346
        20.400    23880396.80546
  21077000.969 9 110760475.822 9        51.700    21077008.953 9  86306936.00149
        55.200    21077007.97749  21077005.840 7  82710814.404 7        42.000
  24801174.875 4 130331232.445 4        34.100    24801183.121 6 101556913.97145
        19.000    24801182.83645
  20799811.336 9 109303843.037 9        50.700                    85171816.66049
        42.200    20799815.37149
  22535919.992 8 118427081.904 8        46.600    22535925.082 7  92280875.10349
        36.100    22535924.39549
  23799960.898 6 125069727.835 6        39.300    23799970.219 7  97456978.68749
        37.500    23799969.01649  23799967.488 1  93396225.18111        29.200
  22117254.695 8 116226996.786 8        46.800    22117260.176 8  90566549.79549
        37.400    22117259.46549  22117261.273 5  86792924.243 5        37.500
  21965448.938 8 115429332.672 8        46.200    21965455.914 8  89944994.42949
        48.600    21965455.21149  21965453.566 6  86197382.536 6        38.500
  20926047.211 9 109967241.064 9        50.600    20926051.621 9  85688788.90249
        55.700    20926051.11749
 23  4 10  1  5 30.0000000  0 12G14G16G02G13G30G04G20G05G06G11G09G07
  25220034.594 5 132532168.227 5        37.500    25220042.988 6 103271861.50845
        19.900    25220042.13745
  24784676.047 4 130244404.002 4        34.700                   101489131.67745
        16.300    24784681.62545
  25711515.344 6 135114920.932 6        38.100                   105284357.38946
        20.900    25711518.99246
  23862292.297 7 125397201.538 7        41.200                    97712126.82646
        20.400    23862296.75446
  21067166.039 9 110708792.664 9        51.100    21067174.016 9  86266663.43349
        55.200    21067173.00849  21067170.711 7  82672219.866 7        42.200
  24819011.344 5 130424961.427 5        35.000    24819018.586 5 101629949.50545
        17.800    24819018.60545
  20790908.383 9 109257057.367 9        50.400                    85135360.29949
        42.000    20790912.22349
  22518844.203 8 118337348.413 8        45.200    22518849.668 7  92210952.92849
        35.400    22518848.91049
  23820553.688 6 125177945.078 6        39.200    23820563.426 7  97541303.72349
        36.900    23820562.66849  23820560.391 1  93477036.65411        29.600
  22128481.406 8 116285995.427 8        46.300    22128487.344 8  90612522.74449
        37.300    22128486.69949  22128488.270 5  86836981.638 5        37.400
  21979181.648 8 115501497.924 8        45.700    21979188.445 8  90001227.06749
        48.400    21979188.16449  21979186.402 6  86251272.161 6        38.100
  20929903.125 9 109987504.367 9        50.300    20929907.809 9  85704578.49849
        55.400    20929907.12949
 23  4 10  1  6  0.0000000  0 12G14G16G02G13G30G04G20G05G06G11G09G07
  25200431.984 5 132429157.185 5        36.900    25200440.219 6 103191593.27145
        19.300    25200439.76645
  24796537.453 4 130306735.260 4        34.600                   101537701.43944
        14.800    24796542.06344
  25698926.914 5 135048772.940 5        37.100                   105232813.49345
        19.600    25698930.30545
  23844213.297 6 125302199.102 6        40.800                    97638098.99446
        22.800    23844219.13346
  21057417.383 9 110657562.251 9        51.300    21057425.125 9  86226743.64449
        55.200    21057424.17249  21057421.938 7  82633963.424 7        42.300
  24836854.234 5 130518722.308 5        35.300    24836860.969 6 101703009.91145
        17.800    24836860.12545
  20782096.258 9 109210751.182 9        50.000                    85099277.55949
        41.900    20782100.51649
  22501819.992 8 118247886.597 8        45.700    22501825.422 7  92141242.45849
        35.800    22501825.09049
  23841164.563 6 125286257.166 6        38.900    23841174.641 7  97625702.65749
        36.700    23841173.95749  23841172.230 1  93557918.972 1        30.500
  22139801.828 8 116345484.501 8        46.500    22139807.738 8  90658877.82449
        35.900    22139807.43449  22139808.938 5  86881405.267 5        37.700
  21992953.070 8 115573867.849 8        45.600    21992960.348 8  90057619.19249
        48.800    21992959.90649  21992958.188 6  86305314.613 6        38.100
  20933843.328 9 110008210.296 9        50.900    20933847.930 9  85720712.98849
        55.800    20933847.38749
 23  4 10  1  6 30.0000000  0 12G14G16G02G13G30G04G20G05G06G11G09G07
  25180814.883 5 132326071.070 5        37.100    25180823.160 5 103111266.56245
        17.400    25180822.26245
  24808497.734 4 130369581.795 4        34.300                   101586672.87745
        15.600    24808501.04745
  25686406.016 5 134982979.163 5        36.800                   105181545.61746
        21.100    25686410.18446
  23826156.281 6 125207310.850 6        39.900                    97564160.19246
        20.900    23826162.54346
  21047754.875 9 110606786.019 9        50.900    21047762.742 9  86187177.77249
        55.100    21047761.85249  21047759.598 7  82596046.125 7        41.600
  24854701.688 4 130612514.883 4        34.600    24854709.414 6 101776094.94345
        18.600    24854709.14145
  20773376.523 9 109164926.850 9        48.700                    85063570.30149
        41.400    20773380.43049
  22484848.266 8 118158699.136 8        45.600    22484853.582 7  92071745.77649
        35.500    22484853.13749
  23861793.313 6 125394661.530 6        39.600    23861803.293 7  97710173.49249
        37.400    23861802.52349  23861800.324 1  93638870.17211        30.100
  22151215.555 8 116405462.116 8        46.800    22151221.098 8  90705613.60349
        36.000    22151220.72749  22151222.215 5  86926193.711 5        37.400
  22006763.875 8 115646442.160 8        45.400    22006770.859 8  90114170.56949
        48.600    22006770.50449  22006768.953 6  86359509.678 6        38.300
  20937867.680 9 110029358.127 9        49.800    20937872.152 9  85737191.82849
        56.300    20937871.59849
 23  4 10  1  7  0.0000000  0 12G14G16G02G13G30G04G20G05G06G11G09G07
  25161182.602 3 132222912.553 3        33.700    25161190.578 5 103030883.52345
        16.300    25161191.17645
  24820554.102 3 130432941.961 3        32.600                   101636044.40544
        14.800    24820558.41044
  25673956.078 6 134917541.760 6        39.600                   105130555.37945
        17.400    25673956.45745
  23808121.578 6 125112537.668 6        39.200                    97490311.05446
        21.300    23808127.66446
  21038179.086 9 110556465.161 9        51.000    21038187.004 9  86147966.73249
        55.300    21038186.09449  21038183.734 7  82558468.898 7        42.400
  24872555.984 5 130706338.89915        35.000    24872563.738 6 101849204.57455
        19.000    24872562.73845
  20764748.648 9 109119586.475 9        49.500                    85028240.13249
        41.800    20764752.28549
  22467928.891 8 118069788.836 8        45.000    22467934.383 7  92002465.05549
        35.000    22467933.76649
  23882438.938 6 125503155.547 6        39.300    23882449.219 7  97794714.21149
        35.600    23882447.71949  23882446.813 1  93719888.36111        29.700
  22162721.563 8 116465926.175 8        47.100    22162727.168 8  90752728.43149
        36.600    22162726.84449  22162728.352 5  86971345.433 5        37.300
  22020612.883 8 115719220.281 8        45.300    22020619.863 8  90170880.76549
        48.300    22020619.44549  22020618.113 6  86413856.961 6        38.000
  20941975.883 9 110050947.013 9        49.000    20941980.496 9  85754014.33449
        55.600    20941979.87949
 23  4 10  1  7 30.0000000  0 12G14G16G02G13G30G04G20G05G06G11G09G07
  25141540.352 6 132119683.438 6        39.700    25141548.637 6 102950445.43346
        22.600    25141548.55946
  24832708.828 4 130496812.068 4        34.800                   101685813.20645
        16.300    24832712.65645
  25661571.141 5 134852461.233 5        37.500                   105079843.36246
        20.900    25661573.94946
  23790108.859 6 125017879.321 6        38.700                    97416551.35945
        19.900    23790114.92245
  21028690.008 9 110506599.434 9        50.600    21028697.738 9  86109110.33849
        55.600    21028697.00049  21028694.430 7  82521231.514 7        42.000
  24890415.656 3 130800192.533 3        33.500    24890423.309 5 101922337.22745
        19.000    24890422.93845
  20756212.750 9 109074730.712 9        49.900                    84993287.59249
        42.000    20756216.51649
  22451063.156 7 117981156.675 7        44.900    22451068.230 7  91933401.05949
        35.500    22451067.28949
  23903101.398 6 125611735.070 6        39.200    23903111.070 6  97879321.57649
        36.100    23903109.98449  23903108.742 1  93800970.37211        30.600
  22174319.219 8 116526873.162 8        45.900    22174325.137 8  90800219.56549
        36.500    22174324.54749  22174326.508 5  87016857.723 5        37.600
  22034500.641 8 115792200.283 8        45.100    22034507.145 8  90227748.26949
        47.900    22034506.69949  22034505.168 5  86468354.973 5        37.600
  20946167.586 9 110072974.646 9        49.800    20946172.055 9  85771178.72949
        56.200    20946171.60549
 23  4 10  1  8  0.0000000  0 12G14G16G02G13G30G04G20G05G06G11G09G07
  25121882.461 4 132016386.148 4        34.600    25121892.492 6 102869954.25145
        18.600    25121891.28945
  24844959.219 5 130561190.260 5        35.500                   101735978.01245
        17.800    24844963.52045
  25649253.328 3 134787740.507 3        33.800                   105029411.54745
        17.400    25649257.89545
  23772118.063 6 124923336.568 6        39.100                    97342881.71345
        19.900    23772123.25045
  21019287.609 9 110457189.782 9        51.100    21019295.398 9  86070609.33349
        55.100    21019294.51249  21019292.148 7  82484334.715 7        41.700
  24908281.266 3 130894075.53813        33.900    24908288.656 6 101995492.71955
        17.800    24908287.60545
  20747769.898 9 109030361.942 9        49.500                    84958714.52949
        41.600    20747773.29349
  22434250.227 7 117892805.211 7        44.500    22434255.539 7  91864555.79249
        35.200    22434254.57849
  23923778.906 5 125720397.273 5        37.200    23923789.098 6  97963993.36149
        35.000    23923787.89549  23923786.992 1  93882114.162 1        30.800
  22186008.586 8 116588300.787 8        45.800    22186014.469 8  90848085.21649
        36.400    22186013.96149  22186015.344 5  87062728.981 5        37.300
  22048426.648 8 115865381.416 8        45.300    22048433.477 8  90284772.50449
        47.800    22048432.84049  22048431.152 5  86523003.169 5        37.400
  20950442.547 9 110095439.740 9        49.400    20950447.168 9  85788683.99849
        55.900    20950446.62949
 23  4 10  1  8 30.0000000  0 12G14G16G02G13G30G04G20G05G06G11G09G07
  25102213.727 5 131913023.86715        37.000    25102219.559 3 102789412.45855
        16.300    25102221.77745
  24857306.242 4 130626074.825 4        34.400                   101786537.34245
        16.900    24857310.81645
  25637008.227 6 134723381.11116        38.900                   104979261.43456
        24.400    25637010.69146
  23754148.883 6 124828910.702 6        38.900                    97269303.17846
        21.100    23754154.88346
  21009972.570 9 110408237.683 9        50.200    21009980.262 9  86032464.85449
        55.600    21009979.24249  21009976.797 7  82447779.594 7        42.000
  24926152.250 4 130987986.74014        34.300    24926159.156 5 102068670.02355
        16.900    24926157.46945
  20739419.633 9 108986482.197 9        49.200                    84924522.51949
        41.800    20739423.54349
  22417491.398 7 117804737.657 7        44.600    22417496.652 7  91795931.74849
        35.700    22417496.20349
  23944471.906 6 125829139.772 6        38.600    23944482.223 7  98048727.65749
        35.500    23944481.05549  23944479.516 2  93963317.821 2        31.000
  22197788.977 8 116650207.191 8        46.300    22197794.902 8  90896323.94749
        36.700    22197794.41449  22197795.727 5  87108957.780 5        37.200
  22062391.109 8 115938763.407 8        45.400    22062397.813 8  90341953.25049
        48.000    22062397.20349  22062395.523 5  86577801.386 5        37.900
  20954800.664 9 110118342.389 9        49.900    20954805.316 9  85806530.22849
        55.300    20954804.92649
 23  4 10  1  9  0.0000000  0 12G14G16G02G13G30G04G20G05G06G11G09G07
  25082530.563 4 131809598.679 4        34.100    25082541.535 6 102708821.53145
        19.300    25082540.58245
  24869749.172 4 130691463.297 4        34.800                   101837489.40145
        15.600    24869753.63345
  25624828.578 5 134659384.992 5        37.100                   104929394.33445
        19.300    25624832.19545
  23736202.258 6 124734601.744 6        38.200                    97195815.76746
        21.100    23736208.85246
  21000744.227 9 110359743.375 9        50.500    21000751.949 9  85994677.10349
        55.400    21000751.04349  21000748.746 7  82411566.343 7        42.300
  24944028.172 5 131081926.897 5        36.000    24944036.121 6 102141870.09345
        19.300    24944035.34045
  20731163.008 9 108943093.183 9        48.700                    84890712.90549
        41.900    20731166.75849
  22400787.445 8 117716956.220 8        45.000    22400792.395 7  91727530.66149
        35.300    22400792.23049
  23965180.320 5 125937958.971 5        37.600    23965189.750 7  98133521.76749
        35.500    23965188.42249  23965186.594 1  94044578.89111        28.700
  22209660.164 8 116712589.379 8        45.900    22209665.957 8  90944933.41949
        36.300    22209665.48049  22209666.762 5  87155541.825 5        37.700
  22076393.008 8 116012344.928 8        45.300    22076399.844 8  90399289.47749
        48.000    22076399.61749  22076397.738 5  86632748.583 5        37.600
  20959241.844 9 110141680.582 9        50.000    20959246.461 9  85824715.83449
        55.900    20959245.91849
 23  4 10  1  9 30.0000000  0 12G14G16G02G13G30G04G20G05G06G11G09G07
  25062839.516 5 131706113.854 5        37.300    25062848.336 6 102628184.31946
        21.100    25062848.02746
  24882288.195 3 130757353.709 3        33.600                   101888832.47644
        14.800    24882292.64544
  25612720.984 6 134595754.399 6        38.500                   104879812.10046
        20.600    25612722.56646
  23718278.797 6 124640410.932 6        39.800                    97122420.40046
        22.300    23718284.74246
  20991603.523 9 110311708.220 9        51.000    20991611.277 9  85957247.13149
        55.000    20991610.44549  20991607.906 7  82375695.945 7        42.200
  24961909.961 5 131175895.154 5        35.700    24961918.031 6 102215092.12545
        19.300    24961917.40645
  20723000.109 9 108900197.161 9        49.100                    84857287.43849
        41.900    20723003.93049
  22384137.789 8 117629463.002 8        45.800    22384143.301 7  91659354.16949
        36.700    22384142.56649
  23985901.219 6 126046852.640 6        38.100    23985911.691 7  98218373.86549
        35.700    23985910.66449  23985909.180 1  94125895.43611        30.200
  22221621.211 8 116775445.449 8        46.200    22221627.035 8  90993912.15249
        36.900    22221626.68449  22221628.168 5  87202479.775 5        37.600
  22090432.781 8 116086125.684 8        45.100    22090439.832 8  90456780.94749
        47.800    22090439.50049  22090437.840 5  86687844.601 5        37.900
  20963765.734 9 110165453.607 9        50.000    20963770.270 9  85843240.28149
        55.800    20963769.86749
 23  4 10  1 10  0.0000000  0 12G14G16G02G13G30G04G20G05G06G11G09G07
  25043135.461 3 131602571.712 3        33.900    25043143.980 5 102547502.37445
        17.400    25043143.85245
  24894921.063 3 130823743.765 3        33.000                   101940564.98043
        13.900    24894925.14843
  25600681.133 5 134532491.211 5        36.500                   104830516.08246
        21.300    25600684.97346
  23700377.297 6 124546339.229 6        39.600                    97049117.83946
        22.000    23700383.14846
  20982549.945 9 110264133.052 9        50.900    20982557.918 9  85920175.58749
        55.200    20982557.10549  20982554.516 7  82340169.056 7        41.700
  24979796.195 4 131269890.748 4        34.300    24979804.703 6 102288335.38445
        18.300    24979804.59045
  20714931.555 9 108857795.906 9        49.100                    84824247.50349
        41.800    20714935.33649
  22367544.031 8 117542261.016 8        46.400    22367549.156 7  91591404.59749
        37.300    22367548.45349
  24006637.469 6 126155817.555 6        39.900    24006647.320 7  98303281.48349
        35.600    24006645.86749  24006644.617 1  94207265.23311        29.700
  22233671.781 8 116838772.845 8        46.300    22233677.727 8  91043258.13049
        36.600    22233677.35549  22233678.797 5  87249769.675 5        37.100
  22104510.992 8 116160104.758 8        45.000    22104517.734 8  90514426.94549
        47.700    22104517.12949  22104515.516 5  86743088.650 5        37.400
  20968372.219 9 110189660.171 9        50.400    20968376.781 9  85862102.53749
        56.400    20968376.04349
 23  4 10  1 10 30.0000000  0 12G14G16G02G13G30G04G20G05G06G11G09G07
  25023422.727 6 131498974.95616        38.600    25023430.129 5 102466777.84255
        19.000    25023429.72345
  24907649.383 3 130890631.159 3        33.600                   101992685.09942
        12.600    24907654.23042
  25588714.664 6 134469597.172 6        39.600                   104781507.74046
        21.500    25588716.09446
  23682498.508 6 124452387.375 6        39.900                    96975908.66646
        22.000    23682504.70746
  20973584.516 9 110217018.569 9        51.600    20973592.250 9  85883463.02449
        55.200    20973591.49649  20973589.094 7  82304986.189 7        42.000
  24997688.484 4 131363913.177 4        34.300    24997696.590 6 102361599.59045
        18.300    24997695.66445
  20706957.359 9 108815891.569 9        50.000                    84791594.77249
        42.200    20706961.04349
  22351005.477 8 117455352.463 8        45.300    22351010.750 7  91523683.67849
        36.000    22351009.79349
  24027385.648 6 126264850.795 6        38.800    24027395.473 6  98388242.38949
        35.700    24027393.78149
  22245811.961 8 116902569.068 8        46.300    22245818.004 8  91092969.45749
        36.800    22245817.28949  22245819.266 5  87297409.683 5        37.100
  22118626.063 8 116234281.278 8        45.500    22118632.930 8  90572226.80849
        47.500    22118632.14849  22118630.566 5  86798480.224 5        37.200
  20973060.625 9 110214298.964 9        50.200    20973065.227 9  85881301.60249
        55.600    20973064.50049
 23  4 10  1 11  0.0000000  0 12G14G16G02G13G30G04G20G05G06G11G09G07
  25003698.219 6 131395325.788 6        38.000    25003705.227 4 102386012.37945
        18.300    25003705.03945
  24920473.555 5 130958013.001 5        37.500                   102045190.41145
        15.600    24920476.75045
  25576815.648 5 134407073.714 5        37.400                   104732788.20546
        20.400    25576819.50046
  23664643.375 6 124358555.142 6        39.800                    96902792.71046
        22.200    23664649.32446
  20964706.672 9 110170365.061 9        52.100    20964714.449 9  85847109.66249
        55.400    20964713.48849  20964711.242 7  82270147.552 7        42.100
  25015585.977 5 131457961.197 5        35.600    25015592.734 5 102434883.72145
        18.300    25015591.96145
  20699077.977 9 108774484.767 9        50.000                    84759329.74049
        42.300    20699081.69149
  22334523.648 8 117368739.191 8        45.200    22334528.914 7  91456192.83849
        36.900    22334528.07049
  24048147.156 6 126373948.892 6        40.500    24048155.984 6  98473253.78349
        36.300    24048155.18449
  22258040.695 8 116966831.072 8        47.000    22258046.578 8  91143043.71249
        36.800    22258046.10249  22258047.750 5  87345397.488 5        37.600
  22132778.883 8 116308653.971 8        45.800    22132785.801 8  90630179.53449
        47.700    22132784.93049  22132783.266 5  86854018.241 5        37.700
  20977831.227 9 110239368.580 9        50.900    20977835.750 9  85900836.36849
        56.100    20977835.18849
 23  4 10  1 11 30.0000000  0 12G14G16G02G13G30G04G20G05G06G11G09G07
  24983963.781 5 131291626.996 5        35.000    24983973.375 7 102305208.32846
        20.600    24983972.89146
  24933389.414 5 131025887.391 5        37.600                   102098079.48745
        15.600    24933392.54745
  25564990.563 6 134344922.837 6        40.800                   104684358.96346
        22.200    25564992.19546
  23646810.914 6 124264843.992 6        40.400                    96829771.10346
        22.800    23646815.92646
  20955916.813 9 110124173.591 9        51.900    20955924.543 9  85811116.33349
        55.000    20955923.53149  20955921.270 7  82235653.972 7        42.000
  25033487.266 5 131552034.772 5        35.900    25033494.715 5 102508187.80845
        18.600    25033493.73845
  20691293.578 9 108733578.149 9        50.200                    84727454.44849
        42.500    20691297.44149
  22318098.344 8 117282423.854 8        46.500    22318103.402 7  91388934.16949
        36.700    22318103.00849
  24068919.063 6 126483109.274 6        40.200    24068928.793 6  98558313.73749
        35.500    24068927.91849
  22270357.602 8 117031556.666 8        46.600    22270363.441 8  91193479.20849
        36.200    22270363.00449  22270364.336 5  87393731.507 5        37.300
  22146968.836 8 116383222.327 8        46.300    22146975.551 8  90688284.71949
        47.900    22146975.25849  22146973.906 5  86909702.356 5        37.600
  20982683.594 9 110264867.868 9        50.000    20982688.277 9  85920705.94649
        56.100    20982687.53549
 23  4 10  1 12  0.0000000  0 12G14G16G02G13G30G04G20G05G06G11G09G07
  24964221.750 5 131187881.383 5        36.100    24964231.148 6 102224367.92846
        21.800    24964230.42246
  24946398.633 5 131094252.192 5        37.200                   102151350.70944
        14.800    24946402.12944
  25553233.648 6 134283146.826 6        38.200                   104636221.78346
        21.100    25553235.89846
  23629000.992 7 124171254.487 7        41.300                    96756844.25946
        22.900    23629006.48846
  20947214.961 9 110078445.021 9        52.100    20947222.676 9  85775483.70049
        55.300    20947221.64849  20947219.297 7  82201506.026 7        42.000
  25051393.070 5 131646133.255 5        36.400    25051400.777 5 102581511.21945
        17.400    25051400.18845
  20683604.844 9 108693173.457 9        49.900                    84695970.27249
        42.500    20683608.79349
  22301730.422 8 117196409.729 8        45.500    22301735.344 8  91321910.20249
        36.500    22301734.93049
  24089702.648 6 126592329.008 6        38.600    24089712.996 6  98643419.96249
        34.300    24089711.68449
  22282761.859 8 117096743.391 8        46.300    22282768.078 8  91244274.02449
        35.700    22282767.78549  22282768.934 5  87442409.884 5        37.400
  22161195.891 8 116457985.600 8        45.700    22161202.707 8  90746541.78449
        47.800    22161202.17649  22161200.871 5  86965532.043 5        37.500
  20987617.539 9 110290796.020 9        50.400    20987622.102 9  85940909.70249
        55.600    20987621.61749
 23  4 10  1 12 30.0000000  0 12G14G16G02G13G30G04G20G05G06G11G09G07
  24944472.406 6 131084091.898 6        38.400    24944478.992 4 102143493.16545
        19.300    24944478.75445  24944482.773 2  97887462.99612        31.700
  24959499.367 3 131163105.181 3        32.200                   102205002.21343
        13.900    24959504.66043
  25541549.602 5 134221747.333 5        37.900                   104588378.02646
        21.300    25541551.81346
  23611214.867 6 124077787.622 6        40.600                    96684013.07346
        21.700    23611220.64146
  20938601.305 9 110033180.268 9        51.900    20938608.902 9  85740212.48449
        55.000    20938608.15249  20938605.691 7  82167704.452 7        42.100
  25069303.641 4 131740256.257 4        34.100    25069312.211 5 102654853.81645
        16.300    25069312.21145
  20676012.156 9 108653272.756 9        50.200                    84664878.82849
        42.400    20676015.84849
  22285419.914 8 117110698.668 8        45.900    22285425.480 8  91255122.39649
        37.000    22285424.80549
  24110497.586 6 126701605.418 6        39.400    24110507.289 6  98728570.32849
        34.300    24110505.69549
  22295254.313 8 117162388.977 8        46.300    22295259.992 8  91295426.40249
        36.100    22295259.35549  22295260.910 5  87491430.903 5        37.100
  22175459.648 8 116532943.212 8        46.200    22175466.598 8  90804950.29549
        47.400    22175466.05149  22175464.617 5  87021506.843 5        37.600
  20992632.789 9 110317151.898 9        50.200    20992637.461 9  85961446.75749
        55.300    20992636.91449
 23  4 10  1 13  0.0000000  0 12G14G16G02G13G30G04G20G05G06G11G09G07
  24924712.336 5 130980260.962 5        35.400    24924722.043 6 102062586.16245
        19.000    24924720.80145  24924724.422 1  97809927.275 1        29.700
  24972694.344 5 131232443.818 5        35.900                   102259032.30043
        13.900    24972699.04343
  25529936.406 3 134160726.596 3        33.700                   104540829.43945
        19.900    25529940.25845
  23593452.180 6 123984443.960 6        40.400                    96611277.80246
        22.800    23593457.87546
  20930076.047 9 109988380.045 9        52.200    20930083.594 9  85705303.23849
        55.700    20930082.78149  20930080.641 7  82134249.747 7        42.100
  25087219.500 3 131834403.242 3        33.900    25087228.172 6 102728215.06245
        17.400    25087227.24245
  20668515.414 9 108613878.018 9        49.500                    84634181.63549
        42.400    20668519.28949
  22269167.750 8 117025293.040 8        45.600    22269173.277 8  91188572.57649
        36.900    22269172.69549
  24131301.797 5 126810935.508 5        37.600    24131313.168 7  98813762.51749
        35.000    24131311.56349
  22307832.961 8 117228490.754 8        46.400    22307838.793 8  91346934.25149
        35.800    22307838.40249  22307840.039 5  87540792.571 5        37.500
  22189760.531 8 116608094.279 8        45.400    22189767.254 8  90863509.55349
        47.000    22189766.75849  22189764.961 5  87077626.127 5        37.100
  20997729.156 9 110343933.853 9        49.500    20997733.879 9  85982315.82149
        55.700    20997733.34449
 23  4 10  1 13 30.0000000  0 12G14G16G02G13G30G04G20G05G06G11G09G07
  24904947.461 5 130876390.94115        37.500    24904955.473 6 101981648.75356
        20.400    24904955.02746  24904956.832 1                        26.900
  24985981.883 5 131302265.550 5        36.200                   102313438.78244
        14.800    24985985.17644
  25518398.531 6 134100086.051 6        39.200                   104493577.09746
        22.300    25518401.32046
  23575712.859 6 123891224.175 6        40.200                    96538639.03346
        22.600    23575718.10546
  20921639.398 9 109944044.700 9        52.300    20921646.930 9  85670756.22649
        56.000    20921646.03949  20921643.914 7  82101142.186 7        42.200
  25105139.859 5 131928573.374 5        35.100    25105147.285 5 102801594.36645
        17.400    25105146.85245
  20661115.195 9 108574990.447 9        49.800                    84603879.63349
        42.100    20661119.23049
  22252974.344 8 116940195.341 8        46.400    22252979.664 7  91122262.70849
        37.600    22252978.94149
  24152116.469 5 126920315.987 5        36.900    24152126.945 6  98898993.97349
        34.100    24152125.59849
  22320497.852 8 117295045.808 8        45.500    22320503.879 8  91398795.29849
        35.700    22320503.40249  22320504.828 5  87590492.728 5        36.800
  22204097.906 8 116683437.700 8        45.200    22204104.652 8  90922218.69049
        47.100    22204104.48849  22204102.352 5  87133889.035 5        37.100
  21002906.477 9 110371140.826 9        49.700    21002911.395 9  86003516.05349
        55.200    21002910.78949
 23  4 10  1 14  0.0000000  0 12G14G16G02G13G30G04G20G05G06G11G09G07
  24885173.773 5 130772484.830 5        36.700    24885183.020 6 101900683.13346
        21.500    24885181.88346  24885182.156 1  97654770.20111        27.600
  24999360.469 5 131372568.035 5        35.200                   102368219.94442
        12.600    24999364.01642
  25506931.031 5 134039827.237 5        37.500                   104446622.19046
        21.800    25506934.72346
  23557997.438 6 123798128.525 6        40.200                    96466097.03746
        22.900    23558002.86346
  20913291.086 9 109900174.947 9        51.300    20913298.695 9  85636572.02049
        55.200    20913298.03149  20913295.742 7  82068382.347 7        42.300
  25123063.930 3 132022766.041 3        33.700    25123072.305 5 102874991.17345
        17.800    25123071.27745
  20653811.766 9 108536611.526 9        49.500                    84573973.97949
        42.400    20653816.14549
  22236839.883 8 116855407.988 8        46.200    22236844.941 8  91056194.66149
        37.200    22236844.10949
  24172940.367 5 127029744.017 5        37.900    24172950.375 6  98984262.49649
        35.500    24172949.20349
  22333248.531 8 117362051.647 8        46.300    22333254.816 8  91451007.60549
        35.400    22333254.14549  22333255.316 5  87640529.527 5        36.900
  22218471.453 8 116758972.690 8        45.800    22218478.938 8  90981077.09749
        47.200    22218478.54749  22218476.332 5  87190295.015 5        37.200
  21008164.469 9 110398771.436 9        49.800    21008169.270 9  86025046.40449
        55.200    21008168.63749
 23  4 10  1 14 30.0000000  0 12G14G16G02G13G30G04G20G05G06G11G09G07
  24865394.742 5 130668545.068 5        36.000    24865401.055 5 101819691.27945
        18.300    24865401.44145  24865405.758 2  97577153.07612        31.900
  25012829.242 5 131443349.121 5        35.500                   102423374.08144
        14.800    25012833.29744
  25495536.766 5 133979951.885 5        37.000                   104399966.13446
        20.600    25495540.05146
  23540306.141 6 123705158.333 6        40.200                    96393652.80046
        22.800    23540311.15246
  20905031.750 9 109856771.588 9        51.800    20905039.457 9  85602751.24349
        55.800    20905038.72349  20905036.246 7  82035970.757 7        42.000
  25140992.859 4 132116980.888 4        34.700    25141000.664 5 102948405.27545
        16.900    25140999.84045
  20646606.047 9 108498743.573 9        50.300                    84544466.48749
        42.500    20646610.03949
  22220764.688 8 116770933.558 8        46.300    22220770.055 8  90990370.46549
        37.400    22220769.62549
  24193772.313 6 127139216.721 6        38.300    24193782.922 7  99069565.78849
        36.200    24193781.73449
  22346084.867 8 117429505.697 8        46.300    22346090.836 8  91503569.16849
        35.700    22346090.29749  22346091.816 5  87690901.018 5        36.500
  22232882.008 7 116834698.510 7        44.800    22232889.176 8  91040084.20149
        47.400    22232888.87149  22232887.094 5  87246843.515 5        37.500
  21013502.641 9 110426824.382 9        49.300    21013507.617 9  86046905.84149
        55.000    21013507.14149
 23  4 10  1 15  0.0000000  0 12G14G16G02G13G30G04G20G05G06G11G09G07
  24845610.180 6 130564574.502 6        38.600    24845618.293 5 101738675.45846
        21.800    24845617.62946  24845622.035 2  97499513.052 2        31.500
  25026388.211 4 131514606.209 4        34.500                   102478899.03444
        14.800    25026392.68044
  25484216.109 5 133920462.421 5        37.900                   104353610.69046
        20.900    25484219.60546
  23522638.352 6 123612314.278 6        40.500                    96321306.83446
        23.200    23522642.96546
  20896861.266 9 109813835.388 9        51.600    20896869.004 9  85569294.47949
        55.800    20896868.01649  20896865.652 7  82003908.029 7        42.300
  25158925.266 3 132211217.416 3        33.700    25158932.574 3 103021836.26944
        14.800    25158931.65644
  20639497.898 9 108461388.275 9        49.500                    84515358.46849
        42.600    20639501.42649
  22204749.969 8 116686774.874 8        46.400    22204754.906 8  90924792.28949
        37.400    22204754.30149
  24214611.938 5 127248731.334 5        37.500    24214621.992 6  99154901.75249
        35.400    24214621.35949
  22359005.789 8 117497405.462 8        45.900    22359011.914 8  91556478.04949
        35.700    22359011.29349  22359012.480 5  87741605.370 5        37.300
  22247328.070 7 116910614.511 7        44.600    22247335.211 8  91099239.50149
        47.000    22247334.84449  22247333.207 5  87303533.978 5        37.300
  21018921.289 9 110455298.369 9        49.700    21018925.922 9  86069093.36749
        55.600    21018925.59449
 23  4 10  1 15 30.0000000  0 12G14G16G02G13G30G04G20G05G06G11G09G07
  24825819.836 6 130460576.098 6        38.900    24825827.941 6 101657637.96046
        22.600    24825827.27346  24825828.418 1  97421852.13011        27.300
  25040038.750 4 131586337.027 4        34.700                   102534793.07444
        14.800    25040043.45344
  25472969.664 5 133861360.626 5        37.800                   104307557.35546
        21.300    25472972.14846
  23504994.313 6 123519597.330 6        40.400                    96249059.93146
        23.000    23505000.34046
  20888779.766 9 109771367.174 9        52.000    20888787.496 9  85536202.38449
        55.300    20888786.55949  20888784.309 7  81972194.768 7        42.600
  25176862.305 4 132305475.173 4        34.400    25176869.680 5 103095283.89945
        17.400    25176867.97745
  20632486.930 9 108424547.588 9        50.200                    84486651.44549
        42.500    20632490.78549
  22188795.250 8 116602933.495 8        46.300    22188800.602 8  90859461.36649
        37.600    22188799.87149
  24235459.719 6 127358285.113 6        38.500    24235470.043 6  99240268.26149
        34.600    24235468.47749
  22372011.148 8 117565748.495 8        45.500    22372017.215 8  91609732.33149
        34.900    22372016.40649  22372018.234 5  87792640.696 5        36.700
  22261810.469 8 116986720.019 8        45.300    22261817.309 8  91158542.48349
        46.900    22261816.96149  22261815.496 5  87360366.005 5        36.900
  21024419.711 9 110484192.663 9        50.000    21024424.242 9  86091608.39749
        55.200    21024423.71149
 23  4 10  1 16  0.0000000  0 11G14G16G02G13G30G20G05G06G11G09G07
  24806023.500 5 130356552.372 5        37.100    24806032.020 6 101576580.71746
        20.900    24806031.80546  24806034.254 1  97344172.23511        29.200
  25053778.656 4 131658539.188 4        34.300                   102591054.52445
        15.600    25053782.74245
  25461797.008 5 133802648.194 5        37.600                   104261807.44946
        20.100    25461799.52346
  23487375.031 6 123427007.906 6        39.700                    96176912.40146
        24.300    23487381.10246
  20880787.625 9 109729367.521 9        52.300    20880795.230 9  85503475.39949
        55.500    20880794.09449  20880792.012 7  81940831.413 7        42.600
  20625574.711 9 108388223.079 9        50.200                    84458346.63649
        42.800    20625578.38749
  22172902.172 8 116519412.505 8        47.000    22172907.270 8  90794380.09649
        37.300    22172906.61349
  24256314.078 5 127467874.983 5        37.400    24256324.031 6  99325662.88749
        34.300    24256323.18049
  22385100.250 8 117634532.140 8        45.700    22385106.328 8  91663329.93949
        34.800    22385105.44149  22385107.227 5  87844005.085 5        37.200
  22276329.063 7 117063014.244 7        44.900    22276335.785 8  91217992.51449
        46.700    22276335.25449  22276333.633 5  87417338.941 5        36.800
  21029997.859 9 110513505.676 9        49.800    21030002.320 9  86114449.71149
        55.200    21030001.86749
 23  4 10  1 16 30.0000000  0 11G14G16G02G13G30G20G05G06G11G09G07
  24786223.883 5 130252505.714 5        35.700    24786232.477 6 101495505.65745
        19.300    24786232.50045  24786234.871 1  97266475.36411        29.800
  25067606.984 5 131731210.171 5        35.300                   102647681.12345
        16.300    25067611.81645
  25450699.773 6 133744326.522 6        39.700                   104216362.00546
        22.600    25450702.32046
  23469780.023 6 123334546.656 6        39.900                    96104864.69946
        24.000    23469786.35946
  20872884.367 9 109687836.716 9        52.700    20872892.098 9  85471113.75049
        55.300    20872891.22749  20872888.766 7  81909818.161 7        42.400
  20618760.945 9 108352416.219 9        50.300                    84430445.19949
        42.700    20618764.60549
  22157069.945 8 116436214.757 8        47.000    22157075.102 8  90729550.71249
        38.500    22157074.56349
  24277174.867 6 127577497.900 6        38.600    24277185.363 6  99411083.22949
        36.100    24277184.01249
  22398272.836 8 117703753.363 8        46.600    22398278.633 8  91717268.52449
        35.800    22398277.93049  22398279.484 5  87895696.186 5        36.800
  22290883.133 8 117139496.042 8        45.000    22290890.188 8  91277588.68849
        47.000    22290889.88749  22290887.961 5  87474451.939 5        37.100
  21035655.148 9 110543235.806 9        50.300    21035659.758 9  86137616.04549
        55.400    21035659.12949
 23  4 10  1 17  0.0000000  0 11G14G16G02G13G30G20G05G06G11G09G07
  24766421.469 6 130148439.038 6        39.400    24766429.148 6 101414414.87546
        21.800    24766428.54346  24766431.699 3  97188763.487 3        32.100
  25081524.664 3 131804347.492 3        32.500                   102704671.23444
        14.800    25081529.50044
  25439675.078 5 133686397.442 5        37.700                   104171222.47446
        20.100    25439678.39846
  23452209.570 6 123242214.025 6        39.400                    96032917.27146
        23.000    23452215.50846
  20865070.820 9 109646775.402 9        52.300    20865078.324 9  85439117.93849
        55.400    20865077.50849  20865075.199 7  81879155.546 7        42.300
  20612045.906 9 108317128.492 9        50.300                    84402948.27449
        42.700    20612049.67649
  22141299.820 8 116353341.907 8        47.600    22141305.133 8  90664974.48749
        37.800    22141304.30549
  24298040.750 5 127687150.897 5        37.600    24298051.512 6  99496527.06949
        34.700    24298050.15249
  22411527.883 8 117773409.533 8        46.800    22411533.742 8  91771546.03149
        35.200    22411533.22749  22411534.828 5  87947712.154 5        36.500
  22305472.492 7 117216164.637 7        44.500    22305479.680 8  91337330.41549
        46.800    22305479.63749  22305477.582 5  87531704.426 5        36.800
  21041391.891 9 110573381.737 9        50.400    21041396.605 9  86161106.39549
        55.100    21041395.71949
 23  4 10  1 17 30.0000000  0 11G14G16G02G13G30G20G05G06G11G09G07
  24746615.016 6 130044354.641 6        39.100    24746623.023 7 101333310.36446
        23.900    24746622.57446  24746623.707 1  97111038.40011        28.300
  25095531.313 4 131877948.176 4        34.800                   102762022.40244
        14.800    25095534.59444
  25428727.195 6 133628862.440 6        38.800                   104126390.04346
        21.100    25428730.64846
  23434664.250 7 123150010.810 7        41.000                    95961070.66746
        24.100    23434669.48046
  20857346.547 9 109606183.940 9        52.300    20857353.961 9  85407488.24049
        55.200    20857353.20749  20857351.031 7  81848843.742 7        42.200
  20605429.859 9 108282361.556 9        50.200                    84375857.15949
        42.800    20605433.84849
  22125591.641 8 116270796.310 8        47.200    22125597.219 8  90600653.26149
        37.900    22125596.32849
  24318911.742 6 127796830.860 6        38.800    24318922.902 6  99581991.89749
        34.300    24318921.44149
  22424865.406 8 117843497.781 8        46.600    22424871.055 8  91826160.21749
        34.500    22424870.39549  22424871.871 5  88000050.741 5        36.400
  22320097.430 7 117293019.050 7        44.100    22320104.531 8  91397216.93949
        46.600    22320104.42649  22320102.602 5  87589095.653 5        37.700
  21047207.328 9 110603942.023 9        50.400    21047211.777 9  86184919.60449
        54.900    21047211.15249
 23  4 10  1 18  0.0000000  0 11G14G16G02G13G30G20G05G06G11G09G07
  24726804.500 5 129940256.378 5        37.100    24726812.543 6 101252195.06846
        20.600    24726812.63346  24726813.090 1  97033302.76511        27.900
  25109625.172 5 131952011.136 5        36.100                   102819733.84245
        16.300    25109628.32045
  25417853.953 6 133571724.188 6        38.800                   104081866.72146
        20.900    25417856.35246
  23417143.047 6 123057938.701 6        40.200                    95889326.22747
        25.300    23417149.30947
  20849711.844 9 109566064.002 9        52.100    20849719.348 9  85376225.97049
        55.400    20849718.46149  20849716.398 7  81818884.089 7        42.600
  20598913.438 9 108248118.003 9        50.200                    84349173.87149
        42.600    20598917.43849
  22109946.602 8 116188581.538 8        47.200    22109951.977 8  90536589.82949
        38.100    22109951.14849
  24339788.859 6 127906535.968 6        39.000    24339799.156 6  99667476.29849
        36.600    24339798.73849
  22438284.320 8 117914016.458 8        46.000    22438290.406 8  91881109.81649
        34.800    22438289.96149  22438291.531 5  88052710.795 5        36.700
  22334757.594 7 117370059.608 7        44.300    22334764.609 8  91457248.52549
        46.200    22334764.14849  22334762.801 5  87646625.920 5        37.600
  21053101.594 9 110634916.474 9        50.600    21053105.980 9  86209055.54149
        54.800    21053105.58249
 23  4 10  1 18 30.0000000  0 11G14G16G02G13G30G20G05G06G11G09G07
  24706994.063 6 129836145.847 6        40.400    24707000.621 6 101171070.10146
        22.600    24706999.82846  24707003.344 2  96955558.08312        31.300
  25123804.945 5 132026532.948 5        35.000                   102877802.75245
        16.300    25123808.91845
  25407056.266 6 133514983.588 6        38.900                   104037653.23446
        20.100    25407059.80546
  23399647.555 6 122965997.622 6        40.000                    95817683.88547
        25.200    23399653.29747
  20842166.945 9 109526415.010 9        53.500    20842174.453 9  85345330.67049
        55.600    20842173.70349  20842171.434 7  81789276.066 7        42.600
  20592496.789 9 108214398.265 9        49.400                    84322898.76249
        42.800    20592500.70349
  22094365.258 8 116106698.453 8        47.700    22094370.297 8  90472784.85749
        38.600    22094369.73049
  24360669.195 5 128016262.204 5        36.500    24360678.941 6  99752977.19848
        33.200    24360677.81348
  22451784.711 8 117984961.753 8        46.500    22451790.941 8  91936391.82249
        35.000    22451790.33249  22451791.840 5  88105689.359 5        36.300
  22349453.367 7 117447284.333 7        44.900    22349460.102 8  91517423.62049
        46.200    22349459.49249  22349457.688 5  87704293.720 5        36.200
  21059073.977 9 110666302.630 9        49.900    21059078.695 9  86233512.29249
        55.000    21059078.03149
 23  4 10  1 19  0.0000000  0 11G14G16G02G13G30G20G05G06G11G09G07
  24687179.797 6 129732026.034 6        39.200    24687188.016 6 101089937.91646
        22.600    24687187.19146  24687190.508 2  96877806.529 2        31.900
  25138072.867 4 132101510.435 4        34.100                   102936226.69245
        18.300    25138077.90245
  25396335.523 6 133458642.309 6        39.000                   103993750.99246
        21.800    25396338.65246
  23382176.883 6 122874188.228 6        40.400                    95746144.13747
        25.900    23382182.16447
  20834711.664 9 109487237.701 9        52.800    20834719.320 9  85314802.90049
        55.200    20834718.47349  20834716.270 7  81760020.309 7        43.000
  20586180.234 9 108181204.166 9        49.600                    84297033.23349
        42.800    20586184.15249
  22078846.820 8 116025150.248 8        47.300    22078852.227 8  90409240.80949
        38.600    22078851.26249
  24381552.711 5 128126007.058 5        36.500    24381563.398 6  99838492.58148
        33.100    24381561.92648
  22465365.969 8 118056331.189 8        46.200    22465372.066 8  91992004.33949
        35.300    22465371.44549  22465373.223 5  88158984.680 5        37.200
  22364183.523 8 117524692.703 8        45.300    22364190.633 8  91577741.80649
        46.100    22364190.19949  22364188.078 5  87762098.655 5        37.000
  21065124.711 9 110698098.927 9        50.000    21065129.352 9  86258288.62849
        54.900    21065128.76649
 23  4 10  1 19 30.0000000  0 11G14G16G02G13G30G20G05G06G11G09G07
  24667365.094 6 129627899.898 6        39.100    24667373.938 6 101008800.91246
        24.300    24667373.38346  24667375.027 1  96800050.28011        29.600
  25152428.570 4 132176941.886 4        34.500                   102995004.34645
        17.400    25152432.48845
  25385690.289 6 133402702.428 6        40.300                   103950161.49246
        21.500    25385691.93846
  23364730.563 6 122782511.243 6        39.800                    95674707.59446
        24.200    23364736.77346
  20827346.438 9 109448532.930 9        52.300    20827354.051 9  85284643.36449
        55.000    20827353.13749  20827350.938 7  81731117.404 7        42.300
  20579964.078 9 108148538.000 9        50.100                    84271579.08649
        42.600    20579967.99649
  22063392.961 8 115943939.765 8        47.300    22063398.141 8  90345959.93349
        38.800    22063397.39549
  24402439.859 5 128235767.694 5        37.600    24402449.988 6  99924020.26149
        34.800    24402449.10249
  22479027.242 8 118128122.254 8        46.100    22479033.508 8  92047945.40349
        34.900    22479032.89149  22479034.406 5  88212594.850 5        36.500
  22378948.734 7 117602284.190 7        44.700    22378956.004 8  91638202.66749
        46.000    22378955.70749  22378953.898 5  87820040.297 5        37.100
  21071253.055 9 110730304.860 9        49.800    21071257.871 9  86283384.15849
        54.800    21071257.25449
 23  4 10  1 20  0.0000000  0 11G14G16G02G13G30G20G05G06G11G09G07
  24647550.391 6 129523769.956 6        40.300    24647557.652 6 100927660.88046
        23.000    24647556.97346  24647557.902 1  96722290.98411        28.400
  25166868.875 5 132252824.741 5        36.700                   103054133.74345
        19.000    25166871.76245
  25375122.195 6 133347165.322 6        39.300                   103906885.83346
        22.000    25375124.75046
  23347311.211 7 122690967.762 7        41.700                    95603375.05447
        26.200    23347316.05947
  20820071.086 9 109410301.008 9        53.100    20820078.703 9  85254852.26749
        55.100    20820077.82449  20820075.570 7  81702567.624 7        42.300
  20573848.469 9 108116400.697 9        49.700                    84246537.04449
        42.700    20573852.29749
  22048003.672 8 115863068.905 8        47.300    22048009.016 8  90282943.70249
        37.300    22048008.00849
  24423327.875 5 128345541.220 5        35.700    24423339.434 6 100009557.93448
        32.700    24423338.23048
  22492768.188 8 118200332.035 8        46.300    22492774.492 8  92104212.73749
        34.000    22492773.84449  22492775.828 5  88266517.696 5        36.200
  22393748.633 8 117680057.849 8        45.500    22393755.633 8  91698805.47949
        46.000    22393755.25049  22393753.527 5  87878117.975 5        37.000
  21077459.563 9 110762918.543 9        49.700    21077463.996 9  86308797.41949
        54.800    21077463.50849
 23  4 10  1 20 30.0000000  0 10G14G02G13G30G20G05G06G11G09G07
  24627734.516 6 129419639.622 6        39.600    24627741.098 6 100846520.49646
        21.300    24627740.78546  24627743.125 1  96644531.52711        30.300
  25364631.008 6 133292033.324 6        39.200                   103863925.84346
        20.100    25364631.84446
  23329916.391 7 122599558.567 7        41.100                    95532147.17247
        25.100    23329921.49247
  20812886.047 9 109372542.992 9        53.100    20812893.508 9  85225430.45449
        55.700    20812892.72749  20812890.379 7  81674371.721 7        43.300
  20567834.203 9 108084794.669 9        49.400                    84221908.97449
        42.800    20567837.79349
  22032679.703 8 115782541.135 8        47.500    22032684.984 8  90220194.81049
        38.800    22032684.28549
  24444220.258 5 128455325.296 5        37.100    24444231.000 6 100095103.87849
        34.400    24444229.38349
  22506588.570 8 118272958.388 8        45.300    22506594.973 8  92160804.67049
        34.300    22506594.30549  22506596.203 5  88320751.652 5        36.400
  22408583.180 8 117758013.483 8        45.300    22408589.988 8  91759550.11549
        45.700    22408589.19549  22408587.895 5  87936331.577 5        36.500
  21083743.117 9 110795939.471 9        50.700    21083747.676 9  86334528.01649
        55.000    21083747.03149
 23  4 10  1 21  0.0000000  0 10G14G02G13G30G20G05G06G11G09G07
  24607919.766 6 129315510.689 6        38.200    24607927.070 7 100765381.22146
        22.600    24607925.97746  24607928.938 3  96566773.175 3        32.100
  25354215.578 5 133237307.380 5        37.300                   103821282.19945
        19.300    25354219.15645
  23312547.500 7 122508284.015 7        41.500                    95461024.20247
        25.700    23312552.78147
  20805791.008 9 109335258.531 9        52.800    20805798.535 9  85196377.64749
        55.400    20805797.65649  20805795.488 7  81646529.447 7        42.700
  20561920.805 9 108053720.610 9        50.200                    84197695.42849
        42.600    20561924.74649
  22017421.531 9 115702357.852 9        48.400    22017426.656 8  90157714.34849
        38.700    22017426.37149
  24465113.195 5 128565116.119 5        37.600    24465123.094 6 100180655.12248
        33.300    24465121.44148
  22520487.336 8 118345997.705 8        45.700    22520493.863 8  92217718.40249
        34.400    22520493.60949  22520495.020 5  88375293.941 5        36.800
  22423451.984 8 117836149.449 8        45.800    22423458.887 8  91820435.25449
        45.600    22423458.02049  22423456.438 5  87994679.840 5        36.500
  21090103.797 9 110829364.970 9        49.600    21090108.391 9  86360573.84949
        54.600    21090107.51649
 23  4 10  1 21 30.0000000  0 10G14G02G13G30G20G05G06G11G09G07
  24588105.328 6 129211386.433 6        39.700    24588113.012 7 100684245.63646
        24.800    24588112.26646  24588113.930 1  96489018.277 1        29.600
  25343880.484 6 133182989.226 6        38.800                   103778956.38146
        21.700    25343882.53946
  23295203.711 6 122417145.049 6        40.700                    95390006.85647
        25.800    23295209.37547
  20798786.305 9 109298448.505 9        53.000    20798793.742 9  85167694.52649
        55.600    20798792.91849  20798790.762 7  81619041.461 7        42.600
  20556109.359 9 108023180.560 9        50.100                    84173897.99249
        43.200    20556113.30549
  22002229.164 9 115622521.881 9        48.400    22002234.148 8  90095504.51649
        38.700    22002233.85549
  24486005.766 5 128674911.473 5        37.100    24486016.824 6 100266209.78748
        33.700    24486015.60948
  22534464.523 7 118419447.558 7        44.700    22534471.008 8  92274952.02349
        34.500    22534470.68049  22534472.164 5  88430142.849 5        36.500
  22438354.867 8 117914465.363 8        45.500    22438361.840 8  91881460.61049
        45.600    22438361.31349  22438359.340 5  88053162.466 5        35.800
  21096541.234 9 110863194.606 9        49.700    21096546.020 9  86386934.60649
        54.600    21096545.21549
 23  4 10  1 22  0.0000000  0 10G14G02G13G30G20G05G06G11G09G07
  24568291.891 6 129107269.310 6        40.200    24568299.578 6 100603115.58146
        22.300    24568298.93046  24568300.531 1  96411268.55011        28.900
  25333621.680 6 133129080.607 6        38.400                   103736949.69646
        20.600    25333624.85246
  23277886.664 6 122326141.996 6        40.100                    95319095.45946
        24.400    23277892.06346
  20791871.805 9 109262113.102 9        53.000    20791879.359 9  85139381.24249
        55.200    20791878.54749  20791876.223 7  81591907.909 7        43.000
  20550399.828 9 107993175.660 9        49.500                    84150517.55449
        43.000    20550403.54749
  21987103.289 9 115543035.434 9        48.500    21987108.410 8  90033567.03849
        38.700    21987108.02749
  24506900.852 6 128784708.019 6        38.400    24506910.574 7 100351765.45248
        33.900    24506909.66048
  22548519.313 8 118493304.957 8        45.800    22548525.594 8  92332503.20948
        33.900    22548525.04348  22548526.453 5  88485296.043 5        36.400
  22453292.227 8 117992960.265 8        45.800    22453299.297 8  91942625.42649
        45.800    22453298.87949  22453296.977 5  88111778.724 5        36.500
  21103055.500 9 110897426.556 9        49.600    21103060.246 9  86413608.85649
        54.500    21103059.55949
 23  4 10  1 22 30.0000000  0 10G14G02G13G30G20G05G06G11G09G07
  24548480.344 6 129003162.201 6        38.000    24548487.566 6 100521993.27146
        20.900    24548486.54346  24548490.426 2  96333526.44412        31.300
  25323440.867 5 133075583.128 5        37.500                   103695263.29746
        20.600    25323444.15646
  23260595.414 6 122235276.127 6        40.800                    95248290.93146
        23.900    23260601.23046
  20785047.820 9 109226252.928 9        53.500    20785055.461 9  85111438.26649
        55.800    20785054.77749  20785052.258 7  81565129.218 7        42.600
  20544792.047 9 107963707.667 9        50.000                    84127555.49049
        43.100    20544795.96949
  21972044.500 8 115463901.009 8        47.000    21972049.832 8  89971903.86649
        39.300    21972049.33249
  24527793.188 5 128894503.225 5        36.800    24527803.168 5 100437320.07948
        31.500    24527801.78148  24527802.098 2  96252382.05512        31.000
  22562651.242 8 118567567.269 8        46.100    22562657.133 8  92390369.92548
        33.700    22562656.65248  22562658.223 5  88540751.620 5        35.900
  22468263.352 8 118071633.560 8        45.600    22468270.219 8  92003929.27049
        45.800    22468269.78549  22468268.570 5  88170528.276 5        37.200
  21109645.719 9 110932059.467 9        49.800    21109650.457 9  86440595.53449
        54.500    21109650.07449
 23  4 10  1 23  0.0000000  0 10G14G02G13G30G20G05G06G11G09G07
  24528672.859 6 128899067.979 6        40.800    24528680.324 7 100440880.99847
        26.200    24528680.15247  24528682.391 3  96255793.942 3        32.400
  25313340.000 6 133022498.464 6        38.000                   103653898.67346
        20.900    25313342.57846
  23243330.172 6 122144547.708 6        39.200                    95177593.53046
        22.800    23243335.88746
  20778314.430 9 109190868.456 9        52.300    20778321.984 9  85083865.96749
        55.800    20778321.07449  20778318.781 7  81538705.763 7        42.300
  20539287.117 9 107934777.884 9        49.600                    84105012.80449
        42.900    20539290.60249
  21957052.984 8 115385120.969 8        47.800    21957058.375 8  89910516.84549
        38.800    21957057.65249
  24548686.172 5 129004294.211 5        36.700    24548696.754 6 100522871.40949
        34.200    24548695.71949  24548692.965 1  96334368.78711        26.900
  22576859.172 8 118642231.710 8        45.100    22576865.434 8  92448549.98649
        34.300    22576864.90649  22576866.258 5  88596507.518 5        36.100
  22483267.867 8 118150484.490 8        45.300    22483274.844 8  92065371.52249
        45.000    22483274.15249  22483273.289 5  88229410.431 5        36.600
  21116312.383 9 110967092.047 9        49.700    21116317.105 9  86467893.66049
        54.500    21116316.43049
 23  4 10  1 23 30.0000000  0 10G14G02G13G30G20G05G06G11G09G07
  24508866.852 6 128794989.336 6        39.400    24508874.887 7 100359780.92646
        24.900    24508874.37546  24508875.266 1  96178073.082 1        30.100
  25303316.977 6 132969827.946 6        39.100                   103612856.67246
        20.100    25303319.66846
  23226091.258 6 122053957.765 6        39.600                    95107004.00746
        22.200    23226096.58646
  20771671.359 9 109155959.959 9        52.300    20771679.074 9  85056664.55349
        56.300    20771678.13749  20771676.023 7  81512637.750 7        42.800
  20533884.391 9 107906387.959 9        50.200                    84082890.79049
        42.900    20533888.07049
  21942129.578 8 115306697.779 8        47.500    21942134.953 8  89849407.88549
        39.000    21942134.16849
  24569577.609 5 129114078.111 5        37.700    24569588.242 6 100608417.13849
        34.200    24569587.11349
  22591143.227 8 118717295.316 8        45.600    22591149.688 8  92507041.08948
        33.700    22591148.87948  22591150.820 5  88652561.478 5        36.900
  22498306.523 8 118229512.165 8        46.000    22498313.371 8  92126951.50049
        44.900    22498312.62149  22498311.168 5  88288424.526 5        37.000
  21123054.609 9 111002522.646 9        50.200    21123059.301 9  86495501.90649
        54.500    21123058.55149
 23  4 10  1 24  0.0000000  0 10G14G02G13G30G20G05G06G11G09G07
  24489064.547 6 128690929.156 6        39.200    24489072.012 6 100278695.24846
        22.900    24489070.97346  24489072.684 1  96100365.89811        28.200
  25293373.195 6 132917573.280 6        39.200                   103572138.73546
        21.500    25293375.86346
  23208879.273 6 121963507.068 6        39.900                    95036522.98046
        23.400    23208884.53546
  20765119.094 9 109121528.097 9        52.600    20765127.027 9  85029834.54449
        55.100    20765126.12149  20765123.785 7  81486925.645 7        42.200
  20528584.859 9 107878539.197 9        48.400                    84061190.45849
        42.800    20528588.75849
  21927274.391 9 115228634.380 9        48.300    21927279.813 8  89788579.28249
        38.600    21927279.23449
  24590467.023 6 129223852.259 6        39.000    24590476.520 6 100693955.32848
        30.500    24590475.43848
  22605502.828 8 118792755.566 8        45.600    22605509.422 8  92565841.23648
        33.700    22605508.89848  22605510.246 5  88708911.653 5        36.000
  22513378.641 8 118308716.044 8        45.500    22513385.551 8  92188668.77649
        45.400    22513385.20749  22513383.027 5  88347570.264 5        35.700
  21129872.273 9 111038350.106 9        49.500    21129877.000 9  86523419.41149
        54.500    21129876.23049
 23  4 10  1 24 30.0000000  0 10G14G02G13G30G20G05G06G11G09G07
  24469266.750 6 128586890.097 6        40.900    24469273.512 6 100197625.92546
        23.200    24469272.08246  24469275.980 2  96022674.54412        31.600
  25283509.078 6 132865736.241 6        38.900                   103531746.25446
        20.400    25283512.34446
  23191693.641 6 121873196.161 6        40.300                    94966150.88946
        24.500    23191698.89846
  20758657.617 9 109087572.952 9        52.100    20758665.453 9  85003376.00449
        55.400    20758664.62149  20758662.133 7  81461569.552 7        42.500
  20523388.914 9 107851233.203 9        49.200                    84039913.07049
        42.800    20523392.49249
  21912488.352 8 115150932.731 8        47.600    21912493.703 8  89728032.56849
        39.900    21912493.16449
  24611353.164 5 129333613.667 5        36.600    24611364.340 6 100779483.62348
        32.300    24611362.98448
  22619937.617 8 118868609.292 8        45.300    22619943.938 8  92624948.00649
        34.500    22619943.50849  22619944.703 5  88765555.594 5        36.800
  22528483.984 7 118388095.175 7        44.100    22528490.965 8  92250522.61349
        45.300    22528490.72349  22528488.660 5  88406846.852 5        36.000
  21136765.258 9 111074572.645 9        49.500    21136769.723 9  86551644.76449
        54.400    21136769.39149
 23  4 10  1 25  0.0000000  0 10G14G02G13G30G20G05G06G11G09G07
  24449473.063 6 128482875.114 6        40.100    24449480.656 7 100116575.41646
        24.400    24449480.15246  24449482.375 2  95945001.163 2        31.800
  25273724.078 6 132814318.408 6        40.000                   103491680.34346
        20.400    25273727.27746
  23174535.289 7 121783025.972 7        41.200                    94895888.48247
        25.300    23174540.43447
  20752287.125 9 109054095.124 9        52.400    20752294.941 9  84977289.40949
        55.400    20752294.00449  20752291.535 7  81436569.890 7        42.300
  20518296.305 9 107824471.590 9        50.000                    84019059.86249
        43.000    20518299.98049
  21897771.891 8 115073595.922 8        47.700    21897777.043 8  89667770.14249
        39.000    21897776.10249
  24632239.063 6 129443359.515 6        38.700    24632248.688 6 100864999.77149
        34.900    24632247.05549
  22634446.586 8 118944853.863 8        46.300    22634452.641 8  92684359.34149
        34.600    22634452.19149  22634453.641 5  88822491.487 5        35.800
  22543622.563 8 118467648.946 8        45.000    22543629.734 8  92312512.53549
        44.900    22543629.22349  22543627.902 5  88466253.865 5        36.500
  21143732.914 9 111111189.064 9        49.500    21143737.852 9  86580177.04649
        54.300    21143737.14549
 23  4 10  1 25 30.0000000  0 10G14G02G13G30G20G05G06G11G09G07
  24429684.086 6 128378886.696 6        38.800    24429692.789 7 100035545.62846
        24.900    24429692.44146  24429693.848 1  95867347.677 1        30.400
  25264020.383 6 132763320.889 6        39.200                   103451942.04846
        21.800    25264022.93446
  23157402.648 6 121692997.110 6        40.700                    94825736.16547
        25.800    23157408.40647
  20746007.305 9 109021094.670 9        51.500    20746014.980 9  84951574.78549
        55.700    20746014.10249  20746012.020 7  81411926.707 7        42.400
  20513307.586 9 107798255.342 9        49.300                    83998631.62249
        43.200    20513311.35549
  21883125.203 9 114996625.760 9        48.300    21883130.199 8  89607793.40649
        39.500    21883129.10949
  24653117.953 5 129553087.004 5        35.800    24653129.094 6 100950501.54048
        31.800    24653128.02348
  22649029.008 8 119021486.180 8        45.800    22649035.379 8  92744072.81148
        33.300    22649034.48048  22649035.855 5  88879716.866 5        36.100
  22558793.938 8 118547376.391 8        45.200    22558801.109 8  92374637.77749
        44.400    22558800.51649  22558799.680 5  88525790.514 5        36.800
  21150775.555 9 111148197.948 9        49.600    21150780.250 9  86609015.13149
        54.400    21150779.78949
 23  4 10  1 26  0.0000000  0 10G14G02G13G30G20G05G06G11G09G07
  24409902.125 6 128274928.118 6        40.900    24409909.270 6  99954539.11146
        22.800    24409908.82446  24409908.824 1  95789716.38111        28.900
  25254395.344 5 132712745.652 5        37.800                   103412532.74246
        20.600    25254398.88346
  23140298.188 6 121603110.526 6        40.800                    94755694.73246
        24.000    23140303.00046
  20739818.547 9 108988572.351 9        52.800    20739826.352 9  84926232.73149
        55.700    20739825.23449  20739823.070 7  81387640.580 7        43.000
  20508422.898 9 107772586.268 9        48.600                    83978629.74749
        43.200    20508426.68049
  21868548.352 9 114920024.951 9        48.600    21868553.352 8  89548104.48049
        39.300    21868552.72749
  24673995.273 5 129662793.570 5        37.800    24674005.566 6 101035987.10348
        32.900    24674003.48848
  22663685.141 7 119098503.791 7        44.600    22663691.211 8  92804086.50848
        33.200    22663690.44948  22663692.379 5  88937229.978 5        36.200
  22573998.625 7 118627277.108 7        43.500    22574005.828 8  92436898.04849
        44.300    22574004.75449  22574003.898 5  88585456.599 5        36.200
  21157892.711 9 111185598.182 9        48.600    21157897.387 9  86638158.16549
        54.200    21157896.74649
 23  4 10  1 26 30.0000000  0 10G14G02G13G30G20G05G06G11G09G07
  24390125.477 6 128171002.015 6        39.200    24390131.859 6  99873557.80046
        22.900    24390130.80546  24390134.855 2  95712109.34812        31.700
  25244851.734 6 132662593.930 6        38.500                   103373453.44646
        20.600    25244854.06646
  23123220.516 6 121513366.738 6        40.900                    94685764.55547
        25.200    23123225.65247
  20733720.797 9 108956528.349 9        52.000    20733728.355 9  84901263.38949
        55.200    20733727.56649  20733725.293 7  81363711.637 7        43.100
  20503642.453 9 107747465.717 9        49.800                    83959055.29249
        43.000    20503646.41049
  21854042.141 8 114843795.852 8        47.600    21854047.625 8  89488705.19349
        40.100    21854046.44149
  24694866.672 5 129772476.272 5        36.700    24694877.969 6 101121454.02548
        33.900    24694876.93048
  22678413.867 8 119175903.675 8        45.300    22678420.129 8  92864398.07149
        34.400    22678419.64549  22678421.051 5  88995028.538 5        36.500
  22589235.789 7 118707350.243 7        44.900    22589243.316 8  92499292.67649
        44.200    22589242.77049  22589240.730 5  88645251.467 5        35.000
  21165083.781 9 111223388.086 9        49.600    21165088.488 9  86667604.83649
        54.200    21165087.84849
 23  4 10  1 27  0.0000000  0 10G14G02G13G30G20G05G06G11G09G07
  24370355.094 6 128067111.284 6        38.000    24370363.109 7  99792604.10746
        24.500    24370362.78546  24370365.059 3  95634528.793 3        32.500
  25235389.633 6 132612867.483 6        39.600                   103334705.57746
        23.900    25235393.13746
  23106170.094 6 121423766.374 6        40.700                    94615946.16447
        26.600    23106175.59447
  20727714.156 9 108924963.071 9        52.600    20727721.871 9  84876667.08549
        55.400    20727720.92249  20727718.777 7  81340140.195 7        42.700
  20498966.719 9 107722895.080 9        48.700                    83939909.34549
        43.000    20498970.70349
  21839607.586 9 114767941.131 9        48.200    21839612.844 8  89429597.65149
        39.600    21839612.00449
  24715733.375 5 129882132.523 5        36.100    24715744.633 6 101206900.26848
        32.300    24715743.51248
  22693214.688 7 119253683.016 7        44.700    22693221.102 8  92925005.32049
        34.200    22693220.51249  22693221.867 5  89053110.502 5        36.400
  22604505.648 7 118787595.190 7        42.900    22604513.637 8  92561821.16049
        44.300    22604513.14849  22604511.359 5  88705174.596 5        35.900
  21172348.813 9 111261566.487 9        48.900    21172353.672 9  86697354.24149
        54.300    21172353.05949
 23  4 10  1 27 30.0000000  0 10G14G02G13G30G20G05G06G11G09G07
  24350592.992 6 127963258.406 6        39.400    24350600.520 7  99711679.93947
        25.800    24350600.44947  24350601.395 1  95556976.517 1        30.100
  25226008.430 5 132563567.830 5        37.700                   103296290.24046
        20.100    25226009.77346
  23089146.789 7 121334310.857 7        41.000                    94546240.60547
        25.900    23089153.07447
  20721798.422 9 108893876.488 9        52.200    20721806.109 9  84852443.78549
        55.500    20721805.37149  20721802.887 7  81316926.184 7        42.500
  20494395.891 9 107698875.238 9        48.500                    83921192.57849
        43.000    20494399.72749
  21825244.656 9 114692463.194 9        48.600    21825250.125 8  89370783.69549
        40.100    21825248.97349
  24736595.539 6 129991759.139 6        38.200    24736606.012 6 101292323.47748
        32.400    24736604.55948
  22708087.266 8 119331838.618 8        45.600    22708093.410 8  92985905.75949
        34.400    22708092.93049  22708094.094 5  89111473.433 5        36.500
  22619808.656 7 118868010.804 7        44.700    22619816.074 8  92624482.64249
        44.400    22619815.57049  22619814.305 5  88765225.162 5        36.100
  21179687.656 9 111300131.299 9        49.300    21179692.328 9  86727404.74949
        54.200    21179691.71149
 23  4 10  1 28  0.0000000  0 10G14G02G13G30G20G05G06G11G09G07
  24330838.266 6 127859446.211 6        39.500    24330844.914 7  99630787.43646
        24.800    24330844.61746  24330845.645 1  95479454.45811        29.500
  25216708.094 6 132514696.082 6        38.800                   103258208.39846
        21.800    25216712.98446
  23072151.594 7 121245000.025 7        41.100                    94476647.83647
        25.000    23072157.18047
  20715973.961 9 108863268.689 9        52.700    20715981.676 9  84828593.57249
        55.100    20715980.96549  20715978.625 7  81294069.732 7        43.300
  20489930.398 9 107675407.517 9        48.900                    83902906.05349
        43.100    20489934.12549
  21810953.953 9 114617363.988 9        48.600    21810959.004 8  89312264.84249
        40.000    21810957.89549
  24757449.813 3 130101353.192 3        32.600    24757461.457 6 101377721.34448
        31.200    24757460.26248
  22723031.023 7 119410367.432 7        44.900    22723037.109 8  93047097.01248
        33.500    22723036.34048  22723037.887 5  89170115.059 5        35.400
  22635143.891 7 118948596.209 7        44.900    22635150.473 7  92687276.44549
        43.900    22635149.86349  22635149.363 5  88825402.562 5        35.900
  21187099.453 9 111339080.981 9        49.000    21187104.145 9  86757755.14449
        54.100    21187103.66849
 23  4 10  1 28 30.0000000  0 10G14G02G13G30G20G05G06G11G09G07
  24311091.211 6 127755677.850 6        38.900    24311097.926 6  99549929.06546
        22.600    24311097.31346
  25207489.656 6 132466254.540 6        38.100                   103220461.71746
        20.600    25207492.66446
  23055184.500 7 121155834.941 7        42.300                    94407168.59647
        26.400    23055189.83247
  20710240.766 9 108833140.550 9        52.500    20710248.406 9  84805117.11349
        54.900    20710247.46949  20710245.344 7  81271571.475 7        42.800
  20485570.203 9 107652493.984 9        49.800                    83885051.35049
        43.400    20485573.87549
  21796735.359 9 114542646.199 9        49.000    21796740.781 8  89254043.20949
        39.500    21796739.81649
  24778297.945 3 130210912.615 3        33.200    24778310.426 7 101463092.07648
        32.200    24778308.90648
  22738045.000 7 119489267.150 7        44.700    22738051.031 8  93108577.27849
        34.000    22738050.27049  22738052.695 5  89229033.628 5        36.300
  22650511.578 7 119029351.321 7        43.700    22650517.949 7  92750202.48349
        44.000    22650517.32449  22650515.980 5  88885706.647 5        35.200
  21194584.313 9 111378414.618 9        49.000    21194588.961 9  86788404.73449
        54.100    21194588.65649
 23  4 10  1 29  0.0000000  0 10G14G02G13G30G20G05G06G11G09G07
  24291353.711 6 127651955.795 6        39.900    24291361.242 7  99469106.77047
        25.400    24291360.27747  24291362.938 3  95324516.58413        32.600
  25198353.586 5 132418243.665 5        36.900                   103183050.66445
        17.800    25198356.61345
  23038244.836 7 121066816.413 7        43.000                    94337803.58846
        24.300    23038250.01646
  20704598.773 9 108803491.798 9        52.700    20704606.438 9  84782014.20949
        54.900    20704605.52749  20704603.441 7  81249431.184 7        42.700
  20481315.383 9 107630135.250 9        49.000                    83867628.95149
        43.400    20481319.07449
  21782589.859 9 114468312.295 9        48.700    21782595.227 8  89196120.71049
        40.200    21782594.49249
  24799139.719 5 130320433.972 5        36.500    24799151.141 6 101548433.24548
        31.900    24799149.50048
  22753129.094 8 119568534.273 8        45.500    22753135.363 8  93170343.84348
        33.200    22753134.74248  22753136.488 5  89288226.544 5        36.200
  22665910.250 8 119110274.788 8        45.200    22665917.496 8  92813259.69549
        44.000    22665916.78949  22665914.781 5  88946136.468 5        36.000
  21202142.266 9 111418130.464 9        48.800    21202146.707 9  86819352.14449
        53.900    21202146.07049
 23  4 10  1 29 30.0000000  0 10G14G02G13G30G20G05G06G11G09G07
  24271626.047 6 127548282.929 6        40.900    24271632.980 7  99388322.86347
        26.600    24271632.59847  24271634.480 2  95247098.693 2        31.400
  25189299.492 5 132370665.059 5        36.600                   103145976.37645
        19.300    25189302.73445
  23021332.789 7 120977945.197 7        42.500                    94268553.33647
        25.800    23021337.66847
  20699048.070 9 108774322.745 9        51.900    20699055.652 9  84759285.10049
        55.300    20699054.87549  20699052.625 7  81227649.124 7        42.900
  20477166.609 9 107608332.488 9        49.300                    83850639.78249
        43.400    20477170.10249
  21768518.164 9 114394364.803 9        48.300    21768523.574 8  89138499.30349
        40.100    21768522.92649
  24819973.336 5 130429914.618 5        36.500    24819985.012 6 101633742.67248
        31.600    24819983.62148
  22768282.180 8 119648166.025 8        45.700    22768288.859 8  93232394.52248
        33.700    22768288.23448  22768290.105 5  89347691.781 5        36.300
  22681341.438 8 119191366.022 8        45.300    22681348.773 8  92876447.61449
        44.300    22681348.32049  22681346.332 5  89006691.565 5        35.500
  21209772.188 9 111458226.804 9        49.500    21209776.664 9  86850596.04149
        53.900    21209776.12549
 23  4 10  1 30  0.0000000  0 10G14G02G13G30G20G05G06G11G09G07
  24251906.445 6 127444662.300 6        39.500    24251913.883 7  99307579.60646
        22.600    24251913.00846  24251914.676 1  95169719.69911        30.100
  25180328.703 6 132323520.434 6        38.800                   103109240.31646
        20.100    25180330.84046
  23004449.836 7 120889222.402 7        43.200                    94199418.75147
        26.500    23004454.65647
  20693588.688 9 108745633.770 9        52.300    20693596.523 9  84736930.06749
        55.800    20693595.46949  20693593.219 7  81206225.548 7        42.700
  20473123.383 9 107587087.410 9        49.800                    83834085.16249
        43.000    20473127.34049
  21754520.305 9 114320805.856 9        48.800    21754525.863 8  89081180.66849
        40.100    21754525.10549
  24840799.141 4 130539352.078 4        34.600    24840810.020 6 101719018.44848
        30.500    24840808.51248
  22783504.766 8 119728159.632 8        45.000    22783510.996 8  93294727.16748
        33.500    22783510.53948  22783512.297 5  89407427.223 5        36.100
  22696804.742 7 119272624.416 7        44.700    22696811.535 8  92939765.80849
        44.000    22696811.20349  22696809.879 5  89067371.466 5        35.900
  21217474.570 9 111498702.289 9        49.300    21217479.059 9  86882135.37949
        53.900    21217478.34449
 23  4 10  1 30 30.0000000  0 10G14G02G13G30G20G05G06G11G09G07
  24232198.789 6 127341096.629 6        39.900    24232205.586 6  99226879.17347
        25.300    24232204.52047  24232206.871 1  95092381.848 1        29.900
  25171440.242 6 132276810.985 6        38.800                   103072843.31346
        22.000    25171443.19146
  22987594.453 7 120800648.196 7        42.700                    94130399.94347
        26.000    22987599.07847
  20688220.813 9 108717424.978 9        52.600    20688228.422 9  84714949.20349
        55.000    20688227.55149  20688225.336 7  81185160.562 7        42.700
  20469186.891 9 107566401.007 9        49.000                    83817965.88249
        43.200    20469190.79349
  21740597.109 9 114247637.650 9        49.300    21740602.039 8  89024166.49549
        40.300    21740601.77349
  24861616.523 6 130648743.443 6        38.000    24861626.371 6 101804258.28248
        32.700    24861625.28948
  22798795.406 7 119808512.038 7        44.700    22798801.570 8  93357339.39848
        33.200    22798800.83248  22798802.676 5  89467430.574 5        35.500
  22712299.531 7 119354049.220 7        44.600    22712306.152 8  93003213.66849
        43.700    22712305.54349  22712304.461 5  89128175.658 5        36.100
  21225248.547 9 111539555.585 9        49.200    21225253.230 9  86913969.11549
        54.100    21225252.61749
 23  4 10  1 31  0.0000000  0 10G14G02G13G30G20G05G06G11G09G07
  24212502.133 6 127237588.954 6        40.000    24212509.434 7  99146223.91747
        26.100    24212508.42247  24212511.063 3  95015087.282 3        33.300
  25162634.609 5 132230538.381 5        37.500                   103036786.74246
        22.500    25162638.47746
  22970767.539 7 120712223.211 7        42.500                    94061497.42047
        26.500    22970772.60547
  20682944.211 9 108689696.767 9        52.400    20682952.098 9  84693342.82049
        55.700    20682950.94949  20682948.750 7  81164454.444 7        43.000
  20465357.055 9 107546274.861 9        49.200                    83802283.16849
        43.100    20465360.92249
  21726748.789 9 114174863.777 9        49.400    21726754.027 8  88967459.60149
        40.400    21726753.32849
  24882423.523 5 130758086.133 5        35.100    24882434.188 6 101889460.21747
        29.800    24882432.98847
  22814153.578 7 119889220.451 7        44.700    22814159.938 8  93420229.04248
        32.500    22814159.25848  22814160.965 5  89527699.863 5        35.400
  22727825.227 7 119435639.784 7        44.600    22727832.363 8  93066790.69249
        43.800    22727831.84449  22727830.590 5  89189103.652 5        35.900
  21233094.461 9 111580785.163 9        50.000    21233098.859 9  86946096.05949
        54.000    21233098.30949
 23  4 10  1 31 30.0000000  0 10G14G02G13G30G20G05G06G11G09G07
  24192816.211 6 127134141.899 6        39.800    24192824.129 7  99065615.95746
        24.400    24192823.23446  24192825.336 2  94937837.968 2        31.800
  25153913.539 6 132184703.771 6        39.500                   103001071.47046
        22.600    25153917.10946
  22953969.281 7 120623948.637 7        41.800                    93992712.08847
        25.800    22953974.51247
  20677759.188 9 108662449.104 9        52.200    20677766.953 9  84672110.88749
        55.100    20677766.06349  20677763.664 7  81144107.192 7        42.800
  20461633.953 9 107526709.603 9        49.800                    83787037.51249
        43.200    20461637.85949
  21712975.703 9 114102485.923 9        49.000    21712980.855 8  88911061.29749
        40.700    21712980.24649
  24903219.570 3 130867377.347 3        32.400    24903232.141 5 101974621.96047
        27.000    24903231.20747
  22829578.992 7 119970281.784 7        44.700    22829585.656 8  93483393.67748
        32.700    22829584.75448  22829586.746 5  89588232.601 5        35.600
  22743382.984 7 119517395.267 7        44.300    22743390.008 8  93130496.21749
        43.700    22743389.82849  22743387.531 5  89250154.755 5        35.400
  21241011.438 9 111622389.390 9        49.900    21241015.969 9  86978514.93649
        54.000    21241015.57849
 23  4 10  1 32  0.0000000  0 10G14G02G13G30G20G05G06G11G09G07
  24173143.180 6 127030758.345 6        40.000    24173149.910 7  98985057.43147
        25.400    24173149.84847  24173150.578 1  94860636.11211        29.900
  25145274.313 5 132139308.505 5        37.500                   102965698.61546
        20.400    25145277.46946
  22937199.906 7 120535825.129 7        41.800                    93924044.48547
        25.300    22937204.51647
  20672665.531 9 108635682.083 9        52.200    20672673.320 9  84651253.48249
        55.700    20672672.41449  20672670.152 7  81124118.850 7        42.700
  20458017.891 9 107507706.652 9        50.300                    83772230.01249
        43.200    20458021.73049
  21699278.492 9 114030506.419 9        49.100    21699283.488 8  88854973.38349
        40.800    21699283.24649
  24924008.109 5 130976614.256 5        36.200    24924019.680 6 102059741.46248
        31.300    24924019.59448
  22845071.086 7 120051692.989 7        44.200    22845077.570 8  93546830.93348
        33.400    22845076.88748  22845078.598 5  89649026.630 5        35.400
  22758971.664 7 119599314.877 7        43.900    22758979.035 8  93194329.64649
        43.700    22758978.68449  22758976.316 5  89311328.451 5        35.100
  21248999.383 9 111664366.876 9        50.200    21249004.000 9  87011224.65749
        53.700    21249003.35949
 23  4 10  1 32 30.0000000  0 10G14G02G13G30G20G05G06G11G09G07
  24153482.641 6 126927441.243 6        39.900    24153489.383 7  98904550.67647
        26.700    24153488.60547  24153490.711 1  94783483.79111        30.700
  25136719.719 6 132094353.921 6        38.400                   102930669.05145
        19.600    25136722.25045
  22920459.328 7 120447853.392 7        42.000                    93855495.11947
        26.900    22920464.02347
  20667663.461 9 108609395.974 9        52.500    20667671.242 9  84630770.81749
        55.800    20667670.27349  20667667.895 7  81104489.623 7        42.700
  20454508.984 9 107489267.277 9        49.500                    83757861.66349
        43.700    20454512.92249
  21685657.320 9 113958927.385 9        48.500    21685662.684 8  88799197.53949
        40.500    21685661.92249
  24944784.367 5 131085794.164 5        35.000    24944796.051 7 102144816.62948
        32.300    24944794.75848
  22860629.172 7 120133451.196 7        44.200    22860635.664 8  93610538.59048
        33.000    22860635.30148  22860636.758 5  89710079.792 5        35.400
  22774591.641 7 119681398.021 7        43.600    22774598.957 7  93258290.49349
        43.200    22774598.49649  22774596.855 5  89372624.253 5        35.600
  21257058.195 9 111706716.098 9        49.800    21257062.871 9  87044224.06349
        53.700    21257062.14549
 23  4 10  1 33  0.0000000  0 10G14G02G13G30G20G05G06G11G09G07
  24133835.508 6 126824193.411 6        39.000    24133842.324 7  98824097.88846
        24.700    24133841.81646  24133843.883 3  94706383.242 3        32.600
  25128249.031 6 132049841.686 6        38.000                   102895984.19246
        20.600    25128251.92246
  22903748.328 7 120360034.406 7        42.500                    93787064.80347
        27.000    22903752.84047
  20662753.094 9 108583590.887 9        51.700    20662760.555 9  84610662.96749
        55.900    20662759.78149  20662757.363 7  81085219.616 7        42.700
  20451107.727 9 107471392.639 9        50.800                    83743933.36449
        43.700    20451111.63749
  21672112.891 9 113887751.946 9        48.500    21672118.309 8  88743736.17249
        40.900    21672117.71149
  24965549.000 3 131194914.40013        33.700    24965561.180 6 102229845.09557
        29.200    24965560.10247
  22876252.883 7 120215553.451 7        44.200    22876259.109 8  93674514.33848
        33.100    22876258.84048  22876260.230 5  89771389.889 5        36.000
  22790242.219 7 119763643.926 7        42.800    22790249.402 7  93322378.16249
        42.900    22790249.09449  22790247.863 5  89434041.588 5        35.900
  21265187.445 9 111749435.381 9        49.600    21265191.930 9  87077511.80449
        53.700    21265191.46149
 23  4 10  1 33 30.0000000  0 10G14G02G13G30G20G05G06G11G09G07
  24114201.266 6 126721017.619 6        39.400    24114208.328 7  98743701.26747
        26.900    24114207.95347  24114210.355 2  94629336.456 2        31.800
  25119863.539 5 132005773.001 5        37.400                   102861644.95346
        20.400    25119866.59846
  22887066.008 7 120272368.586 7        42.200                    93718753.84047
        27.200    22887070.77747
  20657933.984 9 108558266.915 9        52.300    20657941.660 9  84590930.01749
        55.900    20657940.80549  20657938.387 7  81066308.864 7        43.200
  20447813.938 9 107454083.875 9        50.200                    83730446.00949
        43.700    20447817.70349
  21658645.836 9 113816981.984 9        49.000    21658650.910 8  88688590.77449
        40.800    21658650.34449
  24986301.273 3 131303972.48213        33.800    24986313.203 5 102314825.18757
        27.000    24986311.85947
  22891941.297 8 120297996.681 8        45.300    22891947.559 8  93738755.77248
        33.500    22891947.06348  22891948.758 5  89832954.599 5        35.800
  22805923.992 7 119846051.869 7        43.200    22805931.434 7  93386592.11349
        43.100    22805930.27049  22805929.277 5  89495579.961 5        35.300
  21273386.727 9 111792523.281 9        49.400    21273391.352 9  87111086.78649
        53.400    21273390.51249
 23  4 10  1 34  0.0000000  0 10G14G02G13G30G20G05G06G11G09G07
  24094581.992 6 126617916.655 6        39.200    24094588.641 7  98663362.94747
        26.200    24094587.48447  24094590.191 2  94552345.637 2        31.400
  25111561.688 5 131962148.828 5        37.600                   102827652.09946
        20.100    25111565.09046
  22870413.281 7 120184856.553 7        43.400                    93650562.70447
        27.300    22870417.70747
  20653206.594 9 108533423.964 9        51.800    20653214.211 9  84571571.89149
        55.400    20653213.37949  20653210.832 7  81047757.329 7        43.500
  20444627.719 9 107437341.812 9        49.800                    83717400.23449
        43.400    20444631.77749
  21645256.406 9 113746619.961 9        49.300    21645261.617 8  88633763.24949
        41.000    21645261.11749
  25007043.438 5 131412965.148 5        35.600    25007054.773 5 102399754.41148
        30.200    25007053.66448
  22907694.211 7 120380777.774 7        44.900    22907700.461 8  93803260.49048
        33.800    22907699.82448  22907701.301 5  89894771.571 5        35.300
  22821636.883 7 119928620.933 7        43.700    22821643.816 7  93450931.61349
        43.100    22821643.24249  22821641.305 4  89557238.617 4        34.800
  21281655.938 9 111835978.135 9        49.800    21281660.543 9  87144947.70949
        53.600    21281660.06649
 23  4 10  1 34 30.0000000  0 10G14G02G13G30G20G05G06G11G09G07
  24074976.758 5 126514893.671 5        37.900    24074983.508 7  98583085.32846
        22.600    24074982.95346  24074984.379 2  94475412.925 2        31.200
  25103345.023 5 131918970.638 5        37.800                   102794006.76645
        19.900    25103347.82845
  22853789.430 7 120097499.517 7        42.300                    93582492.35347
        27.800    22853794.41847
  20648570.727 9 108509062.313 9        53.100    20648578.211 9  84552588.79949
        55.100    20648577.43049  20648574.797 7  81029565.196 7        43.200
  20441550.172 9 107421167.721 9        49.500                    83704797.04049
        43.400    20441553.89149
  21631945.000 9 113676668.398 9        48.400    21631950.133 8  88579255.55849
        41.000    21631949.69949
  25027769.977 3 131521890.133 3        32.800    25027783.094 6 102484630.74347
        29.500    25027782.18047
  22923510.883 7 120463893.900 7        44.100    22923516.789 8  93868026.25948
        33.400    22923516.16848  22923517.809 5  89956838.746 5        35.400
  22837379.484 7 120011350.614 7        43.100    22837386.844 7  93515396.24749
        42.900    22837386.33249  22837384.227 5  89619017.246 5        35.200
  21289994.734 9 111879798.453 9        49.900    21289999.355 9  87179093.40849
        53.400    21289998.75449
 23  4 10  1 35  0.0000000  0 10G14G02G13G30G20G05G06G11G09G07
  24055387.945 6 126411951.436 6        39.100    24055395.191 7  98502870.68947
        26.500    24055394.42647  24055396.023 3  94398540.550 3        32.100
  25095214.375 6 131876239.921 6        38.700                   102760710.10246
        20.600    25095215.74246
  22837195.164 7 120010297.933 7        42.500                    93514543.11447
        28.500    22837200.30547
  20644026.477 9 108485182.110 9        52.600    20644033.945 9  84533980.85449
        56.200    20644033.18849  20644030.918 7  81011732.582 7        43.200
  20438580.742 9 107405562.744 9        49.800                    83692637.31549
        43.400    20438584.35549
  21618712.227 9 113607129.848 9        49.100    21618717.559 8  88525069.68949
        40.800    21618716.78949
  25048485.352 5 131630744.752 5        35.700    25048497.262 6 102569452.22048
        31.500    25048495.94148
  22939390.484 7 120547342.073 7        44.400    22939396.660 8  93933050.77248
        32.700    22939395.86748  22939397.699 5  90019153.936 5        35.800
  22853153.031 7 120094240.270 7        42.800    22853159.961 7  93579985.53749
        42.600    22853159.50049  22853158.445 5  89680915.330 5        35.300
  21298402.672 9 111923982.925 9        49.500    21298407.301 9  87213522.86649
        53.400    21298406.82449
 23  4 10  1 35 30.0000000  0 10G14G02G13G30G20G05G06G11G09G07
  24035814.750 6 126309092.788 6        39.300    24035821.465 7  98422721.21147
        27.000    24035821.35247  24035822.508 2  94321730.688 2        31.900
  25087167.266 5 131833957.746 5        37.300                   102727763.01446
        20.600    25087170.52046
  22820631.117 7 119923252.644 7        42.600                    93446715.67747
        28.100    22820635.60947
  20639573.820 9 108461783.233 9        52.300    20639581.320 9  84515747.98149
        55.100    20639580.45749  20639578.301 7  80994259.405 7        43.400
  20435719.508 9 107390527.611 9        49.200                    83680921.61849
        43.200    20435723.17649
  21605558.758 9 113538006.218 9        48.600    21605563.668 8  88471207.14149
        40.800    21605562.89849
  25069186.703 4 131739526.165 4        34.100    25069197.734 5 102654216.80847
        27.300    25069196.46147
  22955332.633 7 120631119.244 7        44.100    22955339.109 8  93998331.62948
        32.100    22955338.37148  22955340.246 5  90081714.762 5        35.500
  22868957.156 7 120177289.033 7        43.200    22868963.820 7  93644698.82149
        42.500    22868963.22349  22868962.598 5  89742932.184 5        35.300
  21306879.523 9 111968529.669 9        49.100    21306884.359 9  87248234.59949
        53.400    21306883.99249
 23  4 10  1 36  0.0000000  0  9G14G02G13G30G20G05G11G09G07
  24016257.930 6 126206321.096 6        39.100    24016264.500 7  98342639.44547
        25.000    24016263.51647  24016265.285 3  94244985.635 3        32.000
  25079207.688 6 131792125.894 6        38.800                   102695166.78146
        22.300    25079211.52746
  22804097.133 7 119836364.979 7        43.200                    93379011.05947
        28.500    22804101.07447
  20635212.773 9 108438866.224 9        52.600    20635220.395 9  84497890.58349
        55.000    20635219.46149  20635217.227 7  80977146.070 7        43.000
  20432967.367 9 107376064.217 9        50.000                    83669651.43849
        43.700    20432970.96949
  21592484.188 9 113469300.471 9        48.100    21592489.371 8  88417670.21649
        40.400    21592488.57849
  22971336.867 7 120715222.794 7        44.400    22971343.438 8  94063866.81448
        32.600    22971342.75848  22971344.332 4  90144519.276 4        34.900
  22884790.828 7 120260496.648 7        42.700    22884797.707 7  93709535.88749
        43.200    22884797.58249  22884796.629 5  89805067.688 5        35.400
  21315425.336 9 112013437.841 9        49.600    21315429.973 9  87283227.97849
        53.400    21315429.49249
 23  4 10  1 36 30.0000000  0  9G14G02G13G30G20G05G11G09G07
  23996717.148 6 126103638.258 6        38.800    23996723.848 7  98262626.90046
        22.900    23996722.87546  23996725.020 2  94168307.00112        31.000
  25071332.203 5 131750744.571 5        36.800                   102662921.60445
        19.600    25071336.58645
  22787592.625 7 119749634.641 7        43.400                    93311429.00947
        28.200    22787597.15647
  20630943.313 9 108416430.176 9        53.100    20630950.883 9  84480407.95849
        55.700    20630950.08649  20630947.898 7  80960391.900 7        42.700
  20430324.039 9 107362172.359 9        50.300                    83658826.60449
        43.900    20430327.67649
  21579489.992 9 113401014.434 9        48.600    21579495.043 8  88364460.33249
        41.000    21579494.19149
  22987402.617 7 120799648.803 7        43.800    22987409.129 8  94129653.28548
        32.000    22987408.61748  22987410.688 5  90207564.654 5        35.000
  22900654.391 7 120343861.531 7        42.100    22900661.754 8  93774495.49749
        43.600    22900661.76649  22900659.879 5  89867320.664 5        35.400
  21324039.336 9 112058704.942 9        49.600    21324044.008 9  87318501.03649
        53.200    21324043.38749
 23  4 10  1 37  0.0000000  0  9G14G02G13G30G20G05G11G09G07
  23977195.609 6 126001047.695 6        39.700    23977202.168 7  98182686.26147
        26.000    23977201.56347  23977203.660 3  94091697.215 3        32.400
  25063544.211 5 131709815.391 5        37.700                   102631028.76546
        20.900    25063547.36746
  22771118.227 7 119663062.943 7        43.300                    93243970.61947
        27.800    22771123.44147
  20626765.359 9 108394475.581 9        53.000    20626773.000 9  84463300.50049
        55.800    20626772.17249  20626770.016 7  80943997.249 7        42.800
  20427789.203 9 107348853.501 9        50.200                    83648448.26749
        43.800    20427793.04749
  21566575.875 9 113333150.879 9        48.800    21566580.867 8  88311579.66249
        40.900    21566580.25849
  23003529.594 7 120884394.696 7        43.700    23003535.551 8  94195688.99948
        31.900    23003535.16048  23003537.012 5  90270848.826 5        35.200
  22916547.813 7 120427383.379 7        42.800    22916555.754 7  93839577.39249
        42.500    22916555.43049  22916553.188 5  89929690.785 5        35.100
  21332721.617 9 112104329.869 9        50.300    21332726.281 8  87354052.92849
        53.400    21332725.61749
 23  4 10  1 37 30.0000000  0  9G14G02G13G30G20G05G11G09G07
  23957691.484 6 125898552.188 6        40.700    23957698.270 7  98102819.72647
        27.300    23957697.82447  23957699.648 3  94015158.487 3        32.500
  25055842.992 6 131669339.644 6        39.900                   102599489.21546
        22.800    25055846.03546
  22754674.703 7 119576650.539 7        43.800                    93176636.31747
        27.400    22754679.48047
  20622679.078 9 108373002.314 9        52.700    20622686.832 9  84446568.09249
        56.100    20622685.88349  20622683.457 7  80927962.038 7        43.300
  20425363.930 9 107336108.678 9        48.800                    83638517.23749
        43.700    20425367.72749
  21553742.594 9 113265711.701 9        48.800    21553747.852 8  88259029.66949
        41.800    21553746.93849
  23019716.266 7 120969457.335 7        43.900    23019722.770 8  94261971.52548
        33.100    23019722.19948  23019723.438 5  90334369.606 5        35.100
  22932471.680 7 120511061.408 7        43.200    22932478.871 7  93904780.99349
        42.900    22932478.65649  22932476.824 4  89992177.573 4        34.800
  21341471.406 9 112150310.692 9        48.800    21341476.047 9  87389882.14149
        53.000    21341475.30949
 23  4 10  1 38  0.0000000  0  9G14G02G13G30G20G05G11G09G07
  23938205.234 6 125796154.508 6        38.800    23938211.770 7  98023029.38346
        24.600    23938211.04746  23938213.434 3  93938692.749 3        32.200
  25048226.477 6 131629318.351 6        39.000                   102568303.75346
        22.600    25048230.82046
  22738261.508 7 119490398.085 7        43.900                    93109426.65747
        28.600    22738266.17647
  20618684.523 9 108352010.230 9        52.900    20618692.223 9  84430210.63849
        55.700    20618691.21949  20618688.992 7  80912286.122 7        43.500
  20423047.875 9 107323938.563 9        49.000                    83629034.01949
        43.400    20423052.00849
  21540990.414 9 113198699.232 9        48.900    21540995.633 8  88206812.19049
        41.300    21540994.65649
  23035963.102 7 121054833.525 7        43.300    23035969.359 8  94328498.37348
        32.700    23035968.92648  23035970.070 5  90398124.497 5        35.000
  22948424.797 7 120594894.810 7        42.900    22948431.875 7  93970105.69749
        41.800    22948431.44149  22948430.188 5  90054780.382 5        35.200
  21350288.875 9 112196645.887 9        48.400    21350293.352 9  87425987.48249
        53.000    21350292.92249
 23  4 10  1 38 30.0000000  0  9G14G02G13G30G20G05G11G09G07
  23918738.523 6 125693857.739 6        40.100    23918745.250 7  97943317.68047
        25.600    23918744.45747  23918745.539 2  93862302.374 2        31.000
  25040697.758 6 131589752.737 6        38.700                   102537473.42245
        19.600    25040699.79745
  22721878.563 7 119404306.551 7        44.300                    93042342.39247
        29.100    22721883.91047
  20614781.250 9 108331499.465 9        52.700    20614789.004 9  84414228.23749
        55.500    20614788.15249  20614786.063 7  80896969.663 7        43.300
  20420841.539 9 107312344.482 9        49.200                    83619999.66949
        43.200    20420845.57049
  21528320.133 9 113132116.227 9        48.800    21528325.309 8  88154929.35449
        41.200    21528324.38749
  23052268.625 7 121140520.462 7        43.200    23052275.305 8  94395267.38148
        32.400    23052274.59048  23052275.891 5  90462111.437 5        35.300
  22964406.984 7 120678883.070 7        43.100    22964414.699 7  94035551.05149
        42.200    22964414.10549  22964412.242 5  90117498.834 5        35.000
  21359173.172 9 112243334.185 9        49.500    21359177.883 9  87462367.96749
        53.000    21359177.35249
 23  4 10  1 39  0.0000000  0  9G14G02G13G30G20G05G11G09G07
  23899292.305 6 125591664.831 6        40.000    23899298.621 7  97863686.90847
        27.200    23899297.84047  23899299.590 2  93785989.57612        31.600
  25033254.711 5 131550644.133 5        37.300                   102506999.20545
        19.000    25033256.59445
  22705526.398 7 119318376.502 7        43.800                    92975383.94247
        28.900    22705531.90647
  20610969.969 9 108311470.073 9        53.400    20610977.508 9  84398620.94049
        55.400    20610976.65249  20610974.398 7  80882012.690 7        42.600
  20418745.242 9 107301327.384 9        48.500                    83611414.91849
        43.300    20418749.05549
  21515732.078 9 113065965.168 9        48.700    21515736.953 9  88103383.08649
        41.600    21515736.44549
  23068632.836 7 121226515.146 7        44.100    23068639.426 7  94462276.17848
        31.400    23068638.78148  23068640.238 5  90526328.216 5        35.000
  22980418.906 7 120763025.553 7        43.200    22980426.445 7  94101116.57749
        42.400    22980425.56349  22980424.113 4  90180332.475 4        34.800
  21368124.633 9 112290373.962 9        48.400    21368129.152 9  87499022.32949
        53.100    21368128.89149
 23  4 10  1 39 30.0000000  0  9G14G02G13G30G20G05G11G09G07
  23879865.289 6 125489578.717 6        39.200    23879872.715 7  97784139.35547
        26.300    23879872.43047  23879874.016 3  93709756.532 3        32.600
  25025900.219 5 131511993.507 5        37.500                   102476881.79446
        20.400    25025901.94946
  22689205.586 7 119232609.052 7        44.100                    92908552.24047
        29.100    22689210.39547
  20607250.188 9 108291921.968 9        53.400    20607257.656 9  84383388.66049
        55.700    20607256.71949  20607254.523 7  80867415.085 7        42.800
  20416758.797 9 107290887.964 9        49.600                    83603280.30349
        43.700    20416762.35949
  21503226.688 9 113000248.144 9        49.100    21503231.668 9  88052175.03049
        42.000    21503231.18849
  23085055.047 7 121312814.517 7        43.000    23085061.559 8  94529522.39048
        31.800    23085060.91448  23085062.570 5  90590772.464 5        35.300
  22996459.945 7 120847321.505 7        43.300    22996467.191 7  94166801.69149
        41.400    22996466.64849  22996465.242 4  90243280.711 4        34.800
  21377142.297 9 112337763.650 9        49.300    21377147.082 9  87535949.35249
        52.900    21377146.68449
 23  4 10  1 40  0.0000000  0  9G14G02G13G30G20G05G11G09G07
  23860459.539 6 125387602.191 6        39.600    23860466.867 7  97704677.19047
        26.200    23860466.00847  23860468.563 3  93633605.293 3        32.000
  25018632.461 5 131473802.063 5        37.900                   102447122.27046
        22.000    25018635.81346
  22672915.664 7 119147004.764 7        44.300                    92841847.65247
        28.500    22672920.55147
  20603621.680 9 108272854.975 9        53.200    20603629.293 9  84368531.27849
        55.600    20603628.57849  20603626.316 7  80853176.750 7        43.400
  20414882.391 9 107281027.212 9        48.800                    83595596.60449
        43.700    20414885.90649
  21490803.758 9 112934967.262 9        48.600    21490809.102 9  88001306.82549
        42.000    21490808.69149
  23101534.922 7 121399415.423 7        43.000    23101541.422 8  94597003.57148
        32.200    23101540.80148  23101542.641 5  90655441.920 5        35.500
  23012529.984 7 120931770.174 7        42.300    23012537.215 7  94232605.79749
        42.100    23012536.59849  23012535.684 4  90306342.915 4        34.700
  21386226.992 9 112385501.597 9        48.300    21386231.406 8  87573147.75449
        52.800    21386230.81349
 23  4 10  1 40 30.0000000  0  9G14G02G13G30G20G05G11G09G07
  23841076.758 6 125285738.184 6        39.400    23841082.309 7  97625302.69447
        27.200    23841081.61347  23841083.859 2  93557538.127 2        31.800
  25011451.648 5 131436071.126 5        37.900                   102417721.59146
        22.800    25011456.29746
  22656657.352 8 119061564.473 8        45.000                    92775270.84047
        29.400    22656661.98047
  20600085.117 9 108254269.019 9        53.400    20600092.539 9  84354048.72149
        55.900    20600091.50049  20600089.355 7  80839297.651 7        43.000
  20413116.367 9 107271746.017 9        49.100                    83588364.49449
        43.700    20413119.82849
  21478464.773 9 112870125.300 9        48.400    21478469.984 9  87950780.64049
        42.000    21478469.25849
  23118071.281 7 121486314.765 7        43.000    23118077.715 7  94664717.30748
        30.600    23118077.10548  23118078.547 5  90720334.246 5        35.000
  23028628.945 7 121016370.850 7        42.000    23028636.160 7  94298528.35049
        41.000    23028635.64549  23028634.828 5  90369518.714 5        35.400
  21395377.008 9 112433586.263 9        49.500    21395381.637 8  87610616.31649
        52.800    21395380.79349
 23  4 10  1 41  0.0000000  0  9G14G02G13G30G20G05G11G09G07
  23821713.984 7 125183989.543 7        41.100    23821720.352 7  97546018.10747
        27.400    23821719.32047  23821722.027 3  93481557.051 3        32.200
  25004360.555 6 131398801.517 6        38.400                   102388680.38346
        22.000    25004364.17246
  22640429.219 7 118976288.887 7        43.900                    92708822.39247
        28.200    22640434.28547
  20596639.805 9 108236163.903 9        53.400    20596647.285 9  84339940.85149
        55.800    20596646.37949  20596644.141 7  80825777.591 7        42.700
  20411460.813 9 107263044.821 9        49.100                    83581584.33349
        44.000    20411464.12149
  21466209.891 9 112805724.136 9        48.800    21466214.750 8  87900597.92449
        41.400    21466214.12549
  23134663.906 7 121573509.427 7        42.300    23134670.355 7  94732661.15448
        30.600    23134669.32448  23134671.082 5  90785447.094 5        35.000
  23044757.148 7 121101122.787 7        42.600    23044764.180 7  94364568.78149
        42.200    23044763.91449  23044762.148 4  90432807.446 4        34.900
  21404592.852 9 112482015.703 9        48.500    21404597.570 9  87648353.54349
        52.800    21404596.76649
 23  4 10  1 41 30.0000000  0  9G14G02G13G30G20G05G11G09G07
  23802373.945 6 125082359.277 6        40.000    23802380.863 7  97466825.75047
        27.000    23802380.14147  23802382.320 3  93405664.359 3        32.200
  24997356.734 6 131361994.107 6        39.900                   102359999.29446
        22.000    24997359.99646
  22624233.375 7 118891178.796 7        44.300                    92642502.84247
        28.300    22624237.60947
  20593285.875 9 108218539.562 9        53.900    20593293.496 9  84326207.60749
        56.000    20593292.66449  20593290.359 7  80812616.573 7        43.100
  20409915.430 9 107254924.790 9        49.600                    83575257.03749
        43.900    20409919.09049
  21454039.125 9 112741766.221 9        48.600    21454043.813 8  87850760.60749
        41.700    21454043.27749
  23151312.031 7 121660996.428 7        42.400    23151318.660 7  94800832.79548
        30.500    23151317.56648  23151319.691 5  90850778.210 5        35.000
  23060913.688 7 121186025.372 7        42.800    23060920.793 7  94430726.60349
        42.300    23060920.35249  23060918.184 4  90496208.663 4        34.800
  21413874.125 9 112530788.957 9        50.000    21413878.676 8  87686358.67349
        52.700    21413878.20749
 23  4 10  1 42  0.0000000  0  9G14G02G13G30G20G05G11G09G07
  23783057.398 7 124980850.130 7        41.100    23783064.160 7  97387727.77647
        27.300    23783063.64847  23783065.707 2  93329862.165 2        31.900
  24990440.180 6 131325650.188 6        39.200                   102331679.37046
        22.300    24990442.68046
  22608069.328 7 118806234.839 7        44.400                    92576312.80647
        29.500    22608074.20347
  20590023.578 9 108201395.801 9        53.000    20590030.984 9  84312848.84249
        55.800    20590030.12549  20590027.898 7  80799814.425 7        43.100
  20408480.570 9 107247386.496 9        49.700                    83569383.03849
        43.700    20408484.55549
  21441952.914 9 112678253.793 9        49.000    21441957.863 8  87801270.40849
        41.400    21441957.23449
  23168015.414 7 121748772.552 7        41.900    23168021.957 7  94869229.74148
        30.400    23168021.62948  23168023.117 5  90916325.314 5        35.200
  23077098.148 7 121271077.751 7        41.700    23077105.336 7  94497001.13849
        41.100    23077104.81349  23077103.313 4  90559721.786 4        34.600
  21423220.258 9 112579903.926 9        49.100    21423225.047 8  87724630.07749
        52.700    21423224.63349
 23  4 10  1 42 30.0000000  0  9G14G02G13G30G20G05G11G09G07
  23763764.281 6 124879465.128 6        40.100    23763771.102 7  97308726.51147
        25.300    23763770.16847  23763772.281 2  93254152.649 2        31.700
  24983612.781 6 131289770.783 6        39.700                   102303721.37846
        21.500    24983615.12546
  22591936.328 7 118721457.763 7        44.600                    92510252.79547
        29.800    22591941.46947
  20586852.594 9 108184732.492 9        53.500    20586860.102 9  84299864.46149
        55.400    20586859.16049  20586856.984 7  80787371.069 7        43.600
  20407156.789 9 107240430.545 9        49.000                    83563962.82549
        43.400    20407160.96949
  21429951.797 8 112615189.183 8        47.900    21429957.195 8  87752129.16749
        41.400    21429956.64849
  23184773.102 7 121836834.799 7        42.000    23184779.633 7  94937849.63248
        30.500    23184778.75048  23184781.203 5  90982086.042 5        35.300
  23093311.102 7 121356279.345 7        41.100    23093318.730 7  94563391.94349
        40.500    23093317.95749  23093317.328 4  90623346.301 4        34.500
  21432631.305 9 112629359.008 9        49.200    21432635.949 8  87763166.49749
        52.700    21432635.61749
 23  4 10  1 43  0.0000000  0  9G14G02G13G30G20G05G11G09G07
  23744495.805 6 124778207.140 6        40.700    23744502.227 7  97229824.25947
        27.300    23744502.05547  23744503.898 3  93178537.936 3        33.100
  24976872.914 5 131254356.702 5        37.500                   102276125.96946
        21.800    24976875.84846
  22575836.031 8 118636848.809 8        45.600                    92444323.78947
        29.600    22575840.84047
  20583773.188 9 108168549.417 9        53.400    20583780.516 9  84287254.28149
        55.800    20583779.66049  20583777.266 7  80775286.295 7        43.000
  20405944.289 9 107234057.679 9        49.900                    83558996.95149
        43.800    20405948.26249
  21418037.063 9 112552574.723 9        48.400    21418042.188 8  87703338.68849
        41.600    21418041.59449
  23201584.594 7 121925180.014 7        43.000    23201591.332 8  95006690.00048
        30.900    23201590.63348  23201592.414 5  91048058.043 5        35.300
  23109553.258 7 121441629.366 7        42.200    23109560.313 7  94629898.41149
        40.500    23109559.44149  23109558.676 4  90687081.616 4        34.500
  21442106.672 9 112679152.723 9        49.500    21442111.246 8  87801966.78549
        52.500    21442110.79749
 23  4 10  1 43 30.0000000  0  9G14G02G13G30G20G05G11G09G07
  23725251.938 6 124677079.298 6        40.200    23725258.285 7  97151023.38747
        28.000    23725258.13347  23725260.332 3  93103020.488 3        33.400
  24970222.820 6 131219409.084 6        38.900                   102248894.03946
        20.600    24970224.54746
  22559767.414 7 118552408.244 7        43.700                    92378525.97147
        28.700    22559771.98847
  20580785.125 9 108152846.588 9        52.700    20580792.352 9  84275018.32249
        56.100    20580791.43449  20580789.207 7  80763560.186 7        43.100
  20404842.563 9 107228268.963 9        49.700                    83554486.27049
        43.700    20404846.73049
  21406207.656 9 112490412.815 9        48.400    21406213.156 9  87654900.84249
        41.300    21406212.40649
  23218449.578 7 122013805.300 7        41.900    23218456.230 7  95075748.62748
        30.200    23218455.57048  23218457.098 5  91114239.213 5        35.000
  23125822.680 7 121527127.335 7        41.200    23125830.352 7  94696520.18149
        40.600    23125829.96549  23125828.191 4  90750927.489 4        34.300
  21451646.539 9 112729283.819 9        49.400    21451651.086 8  87841029.98449
        52.500    21451650.41449
 23  4 10  1 44  0.0000000  0  9G14G02G13G30G20G05G11G09G07
  23706033.242 6 124576084.367 6        40.600    23706039.516 7  97072326.11447
        27.000    23706038.68047  23706040.871 3  93027602.247 3        32.600
  24963662.383 6 131184929.148 6        38.900                   102222026.57246
        20.100    24963664.25846
  22543731.258 8 118468137.064 8        45.400                    92312860.15647
        29.600    22543736.00847
  20577888.094 9 108137623.720 9        53.500    20577895.508 9  84263156.35249
        55.500    20577894.67249  20577892.328 7  80752192.468 7        43.100
  20403852.320 9 107223065.053 9        49.500                    83550431.27549
        44.000    20403856.38749
  21394465.352 9 112428705.618 9        48.400    21394470.680 9  87606817.32549
        41.700    21394470.27049
  23235366.984 7 122102707.433 7        41.900    23235373.617 7  95145022.98548
        30.000    23235372.99248  23235374.621 5  91180627.165 5        35.300
  23142120.539 7 121612772.444 7        41.700    23142128.637 7  94763256.59649
        40.900    23142127.52749  23142124.984 4  90814883.257 4        34.000
  21461249.758 9 112779750.038 9        49.300    21461254.547 8  87880354.30049
        52.400    21461253.92649
 23  4 10  1 44 30.0000000  0  9G14G02G13G30G20G05G11G09G07
  23686840.391 6 124475225.206 6        40.300    23686846.488 7  96993734.59247
        27.000    23686845.65647  23686847.512 3  92952285.428 3        32.200
  24957188.805 5 131150917.662 5        37.900                   102195524.11246
        20.600    24957192.07846
  22527727.336 7 118384036.133 7        44.800                    92247327.02347
        29.800    22527732.32447
  20575082.461 9 108122880.493 9        53.000    20575089.949 9  84251668.13149
        55.700    20575089.21149  20575086.680 7  80741182.930 7        43.100
  20402973.641 9 107218446.456 9        48.900                    83546832.37249
        44.000    20402977.58649
  21382810.031 9 112367455.502 9        48.200    21382815.117 9  87559089.96749
        42.400    21382814.80149
  23252336.492 7 122191883.248 7        42.000    23252343.309 7  95214510.58247
        29.400    23252342.85947  23252344.855 4  91247219.410 4        34.800
  23158446.320 7 121698563.935 7        41.200    23158453.613 7  94830107.04949
        41.000    23158452.81349  23158450.945 3  90878948.274 3        33.400
  21470916.695 9 112830550.127 9        49.000    21470921.250 8  87919938.77949
        52.200    21470920.68449
 23  4 10  1 45  0.0000000  0  9G14G02G13G30G20G05G11G09G07
  23667673.344 6 124374504.885 6        39.900    23667680.258 7  96915251.25647
        27.400    23667679.32447  23667681.387 3  92877072.236 3        32.600
  24950807.273 6 131117375.482 6        38.800                   102169387.44246
        21.700    24950809.96546
  22511756.016 7 118300106.193 7        44.600                    92181927.10747
        28.800    22511760.91447
  20572368.055 9 108108616.821 9        53.200    20572375.645 9  84240553.59149
        56.200    20572374.96949  20572372.469 7  80730531.490 7        43.600
  20402206.477 9 107214413.896 9        50.300                    83543690.11349
        43.900    20402209.93849
  21371241.688 9 112306664.750 9        48.800    21371246.844 9  87511720.55549
        42.200    21371246.37149
  23269357.563 7 122281329.719 7        42.000    23269364.313 7  95284209.09947
        29.200    23269363.45747  23269365.797 5  91314013.817 5        35.400
  23174799.844 7 121784501.183 7        41.700    23174806.879 7  94897071.10949
        40.900    23174806.02349  23174804.652 3  90943122.117 3        33.800
  21480646.844 9 112881682.465 9        49.400    21480651.441 8  87959782.16349
        52.600    21480651.14549
 23  4 10  1 45 30.0000000  0  9G14G02G13G30G20G05G11G09G07
  23648533.867 6 124273925.990 6        39.900    23648540.820 7  96836878.16647
        27.900    23648540.29747  23648542.469 3  92801964.707 3        33.600
  24944514.195 6 131084303.720 6        40.200                   102143617.21946
        24.600    24944517.09046
  22495817.047 8 118216347.945 8        45.000                    92116660.98947
        29.800    22495822.09447
  20569745.078 9 108094832.124 9        52.700    20569752.484 9  84229812.27949
        55.900    20569751.80549  20569749.309 7  80720237.732 7        42.900
  20401550.516 9 107210967.555 9        49.000                    83541004.64649
        44.000    20401554.19949
  21359761.289 9 112246335.360 9        48.500    21359766.391 9  87464710.64749
        42.000    21359765.85949
  23286429.641 7 122371043.508 7        41.600    23286436.371 7  95354115.90647
        29.100    23286435.29747  23286437.707 5  91381007.812 5        35.100
  23191180.328 7 121870583.237 7        41.300    23191187.535 7  94964148.00949
        40.300    23191187.35949  23191186.176 4  91007404.113 4        34.600
  21490440.016 9 112933145.100 9        49.500    21490444.738 8  87999882.90349
        52.700    21490444.18449
 23  4 10  1 46  0.0000000  0  9G14G02G13G30G20G05G11G09G07
  23629422.430 6 124173491.679 6        40.200    23629428.418 7  96758617.72947
        28.700    23629428.40247  23629430.375 3  92726965.129 3        33.600
  24938310.820 6 131051703.156 6        40.900                   102118214.18747
        25.600    24938314.46947
  22479911.898 7 118132762.221 7        44.900                    92051529.28648
        30.800    22479915.95348
  20567213.000 9 108081526.365 9        52.800    20567220.500 9  84219444.16849
        55.400    20567219.77049  20567217.336 7  80710301.624 7        43.000
  20401006.578 9 107208108.388 9        49.200                    83538776.71549
        44.000    20401010.15249
  21348369.398 9 112186469.114 9        48.700    21348374.383 9  87418061.63149
        42.700    21348373.55149
  23303551.727 7 122461021.663 7        41.100    23303558.719 7  95424228.70148
        30.300    23303558.09448  23303559.848 4  91448199.240 4        34.700
  23207588.680 6 121956809.581 6        40.900    23207596.391 7  95031337.33249
        40.100    23207595.96549  23207594.504 4  91071793.875 4        34.700
  21500295.555 9 112984936.797 9        49.300    21500300.098 8  88040240.07049
        52.300    21500299.60549
 23  4 10  1 46 30.0000000  0  9G14G02G13G30G20G05G11G09G07
  23610338.461 7 124073204.945 7        41.000    23610344.391 7  96680472.25647
        28.500    23610343.78147  23610345.941 3  92652075.753 3        32.100
  24932195.781 6 131019574.796 6        39.800                   102093179.09446
        24.500    24932199.44946
  22464038.445 8 118049349.695 8        45.300                    91986532.55248
        30.400    22464043.64848
  20564772.148 9 108068699.313 9        52.700    20564779.652 9  84209449.07149
        55.800    20564778.78149  20564776.414 7  80700722.996 7        42.600
  20400574.289 9 107205837.057 9        48.900                    83537006.85249
        44.100    20400577.86349
  21337065.859 9 112127069.140 9        48.500    21337070.914 9  87371775.93749
        41.900    21337070.39549
  23320724.188 7 122551261.063 7        41.400    23320730.902 7  95494545.07348
        30.300    23320730.02748  23320731.820 4  91515585.756 4        34.600
  23224024.578 7 122043179.618 7        41.500    23224032.113 7  95098638.59549
        40.600    23224031.70349  23224029.883 3  91136290.902 3        33.200
  21510213.375 9 113037055.642 9        49.100    21510218.160 8  88080852.15349
        52.300    21510217.63349
 23  4 10  1 47  0.0000000  0  9G14G02G13G30G20G05G11G09G07
  23591282.695 6 123973068.808 6        40.000    23591289.406 7  96602444.13347
        28.600    23591289.21547  23591290.168 3  92577298.761 3        32.800
  24926171.219 6 130987919.573 6        38.000                   102068512.67046
        22.200    24926175.01646
  22448198.422 8 117966110.997 8        45.200                    91921671.27347
        29.700    22448202.73447
  20562422.141 9 108056350.821 9        52.500    20562429.754 9  84199826.87949
        55.800    20562428.91849  20562426.637 7  80691501.725 7        43.500
  20400253.922 9 107204154.537 9        48.800                    83535695.79349
        43.900    20400257.90249
  21325851.406 9 112068137.465 9        49.000    21325856.648 9  87325855.15349
        42.400    21325855.80949
  23337945.117 7 122641758.771 7        41.900    23337951.961 7  95565062.71547
        29.900    23337951.33647  23337953.352 4  91583165.167 4        34.600
  23240487.547 7 122129692.745 7        41.600    23240495.180 7  95166051.38449
        40.900    23240494.70349  23240492.926 3  91200894.889 3        33.700
  21520193.453 9 113089500.375 9        49.300    21520198.039 8  88121718.17549
        52.100    21520197.21149
